{"type":"FeatureCollection","features":[{"geometry": {"type": "Point", "coordinates": [-74.76899733347379, 40.224575202653085]}, "type": "Feature", "id": 1, "properties": {"NAME": "FOWLER ST D&R STATE MINI PARK", "MCD": "TRENTON CITY", "COUNTY": "Mercer", "STATE": "NJ", "ADDRESS": "17  FOWLER ST", "TYPE": "Park", "SUB_TYPE": "Municipal Park"}},{"geometry": {"type": "Point", "coordinates": [-74.73007122150278, 40.21804029935973]}, "type": "Feature", "id": 2, "properties": {"NAME": "FRANCIAMORE GARDEN PARK", "MCD": "HAMILTON TWP", "COUNTY": "Mercer", "STATE": "NJ", "ADDRESS": "113  AUSTIN AVE", "TYPE": "Park", "SUB_TYPE": "Municipal Park"}},{"geometry": {"type": "Point", "coordinates": [-74.71025864158098, 40.23520794114342]}, "type": "Feature", "id": 4, "properties": {"NAME": "FRANKLIN FIELD", "MCD": "HAMILTON TWP", "COUNTY": "Mercer", "STATE": "NJ", "ADDRESS": "801  KLOCKNER RD", "TYPE": "Park", "SUB_TYPE": "Municipal Park"}},{"geometry": {"type": "Point", "coordinates": [-74.70350128508669, 40.23643685049743]}, "type": "Feature", "id": 5, "properties": {"NAME": "GEORGE DICK FIELD HAMILTON", "MCD": "HAMILTON TWP", "COUNTY": "Mercer", "STATE": "NJ", "ADDRESS": "353  ARMOUR AVE", "TYPE": "Park", "SUB_TYPE": "Municipal Park"}},{"geometry": {"type": "Point", "coordinates": [-74.75338832218276, 40.26645242649008]}, "type": "Feature", "id": 6, "properties": {"NAME": "GILPIN PARK LAWRENCE", "MCD": "LAWRENCE TWP", "COUNTY": "Mercer", "STATE": "NJ", "ADDRESS": "190  JOHNSON AVE", "TYPE": "Park", "SUB_TYPE": "Municipal Park"}},{"geometry": {"type": "Point", "coordinates": [-74.75198876162295, 40.22582091178276]}, "type": "Feature", "id": 7, "properties": {"NAME": "GRANT AV PARK & BASKETBALL COURTS", "MCD": "TRENTON CITY", "COUNTY": "Mercer", "STATE": "NJ", "ADDRESS": "35  GRANT AVE", "TYPE": "Park", "SUB_TYPE": "Municipal Park"}},{"geometry": {"type": "Point", "coordinates": [-74.5278609225835, 40.27220600907926]}, "type": "Feature", "id": 8, "properties": {"NAME": "GRANT AV PARK HIGHTSTOWN", "MCD": "HIGHTSTOWN BORO", "COUNTY": "Mercer", "STATE": "NJ", "ADDRESS": "126  GRANT AVE", "TYPE": "Park", "SUB_TYPE": "Municipal Park"}},{"geometry": {"type": "Point", "coordinates": [-74.68875105092374, 40.18745418923634]}, "type": "Feature", "id": 9, "properties": {"NAME": "GROPPS LAKE PARK HAMILTON", "MCD": "HAMILTON TWP", "COUNTY": "Mercer", "STATE": "NJ", "ADDRESS": "55  LAKESIDE BLVD", "TYPE": "Park", "SUB_TYPE": "Municipal Park"}},{"geometry": {"type": "Point", "coordinates": [-74.71899704990105, 40.23694949881137]}, "type": "Feature", "id": 10, "properties": {"NAME": "International Sculpture Center\r\nInternational Sculpture CenterAddress:?", "MCD": "HAMILTON TWP", "COUNTY": "Mercer", "PHONE": "(609) 689-1051", "STATE": "NJ", "ADDRESS": "19  FAIRGROUNDS RD", "TYPE": "Cultural", "SUB_TYPE": "Museum"}},{"geometry": {"type": "Point", "coordinates": [-74.65005661271235, 40.364625209920035]}, "type": "Feature", "id": 11, "properties": {"NAME": "GROVER PARK PRINCETON", "MCD": "PRINCETON TWP", "COUNTY": "Mercer", "STATE": "NJ", "ADDRESS": "128  GROVER AVE", "TYPE": "Park", "SUB_TYPE": "Municipal Park"}},{"geometry": {"type": "Point", "coordinates": [-74.6078054738619, 40.31527399350315]}, "type": "Feature", "id": 12, "properties": {"NAME": "GROVERS MILL", "MCD": "WEST WINDSOR TWP", "COUNTY": "Mercer", "PHONE": "6097990121", "STATE": "NJ", "ADDRESS": "163  CRANBURY RD", "TYPE": "Park", "SUB_TYPE": "Municipal Park"}},{"geometry": {"type": "Point", "coordinates": [-74.64622908487372, 40.177092780200766]}, "type": "Feature", "id": 13, "properties": {"FAX": "6095850522", "NAME": "GROVEVILLE FD (Squad 119)", "MCD": "HAMILTON TWP", "COUNTY": "Mercer", "PHONE": "6095855710", "STATE": "NJ", "ADDRESS": "4201  CROSSWICKS HAMILTON SQUARE RD", "TYPE": "Emergency", "SUB_TYPE": "Fire EMS"}},{"geometry": {"type": "Point", "coordinates": [-74.65282056182956, 40.35510604033111]}, "type": "Feature", "id": 14, "properties": {"NAME": "HAMILTON AVE PLAYGROUND PRINCETON", "MCD": "PRINCETON BORO", "COUNTY": "Mercer", "STATE": "NJ", "ADDRESS": "95  HAMILTON AVE", "TYPE": "Park", "SUB_TYPE": "Municipal Park"}},{"geometry": {"type": "Point", "coordinates": [-74.72854894764896, 40.23541238927798]}, "type": "Feature", "id": 15, "properties": {"FAX": "6095874440", "NAME": "HAMILTON FIRE CO", "MCD": "HAMILTON TWP", "COUNTY": "Mercer", "PHONE": "6095873895", "STATE": "NJ", "ADDRESS": "1805 E STATE ST", "TYPE": "Emergency", "SUB_TYPE": "Fire"}},{"geometry": {"type": "Point", "coordinates": [-74.70959038465614, 40.208322591100874]}, "type": "Feature", "id": 16, "properties": {"FAX": "6098901559", "NAME": "HAMILTON HAZMAT", "MCD": "HAMILTON TWP", "COUNTY": "Mercer", "PHONE": "6098903594", "STATE": "NJ", "ADDRESS": "240   TAMPA AVE", "TYPE": "Emergency", "SUB_TYPE": "Fire"}},{"geometry": {"type": "Point", "coordinates": [-74.65692780247302, 40.22350975772987]}, "type": "Feature", "id": 17, "properties": {"NAME": "HAMILTON SQUARE PARK", "MCD": "HAMILTON TWP", "COUNTY": "Mercer", "STATE": "NJ", "ADDRESS": "30  ENDICOTT RD", "TYPE": "Park", "SUB_TYPE": "Municipal Park"}},{"geometry": {"type": "Point", "coordinates": [-74.69397845415763, 40.211090141741536]}, "type": "Feature", "id": 18, "properties": {"NAME": "HAMILTON TOWNSHIP POLICE DEPARTMENT", "MCD": "HAMILTON TWP", "COUNTY": "Mercer", "PHONE": "6095814000", "STATE": "NJ", "ADDRESS": "1270  WHITEHORSE MERCERVILLE RD", "TYPE": "Emergency", "SUB_TYPE": "Police"}},{"geometry": {"type": "Point", "coordinates": [-74.73454511488572, 40.247260699576415]}, "type": "Feature", "id": 19, "properties": {"NAME": "HAMNETT PARK LAWRENCE", "MCD": "LAWRENCE TWP", "COUNTY": "Mercer", "STATE": "NJ", "ADDRESS": "1500  OHIO AVE", "TYPE": "Park", "SUB_TYPE": "Municipal Park"}},{"geometry": {"type": "Point", "coordinates": [-74.64623296809837, 40.381980116210386]}, "type": "Feature", "id": 20, "properties": {"WEBSITE": "http://www.state.nj.us/counties/mercer/commissions/park/herrontown.html", "NAME": "HERRONTOWN WOODS", "MCD": "PRINCETON TWP", "COUNTY": "Mercer", "PHONE": "6099216543", "STATE": "NJ", "ADDRESS": "101  POOR FARM RD", "TYPE": "Park", "SUB_TYPE": "Municipal Park"}},{"geometry": {"type": "Point", "coordinates": [-74.74174910728347, 40.232804973216055]}, "type": "Feature", "id": 21, "properties": {"NAME": "HETZEL PARK", "MCD": "TRENTON CITY", "COUNTY": "Mercer", "STATE": "NJ", "ADDRESS": "700 N CLINTON AVE", "TYPE": "Park", "SUB_TYPE": "Municipal Park"}},{"geometry": {"type": "Point", "coordinates": [-74.65909241678274, 40.16657491087542]}, "type": "Feature", "id": 22, "properties": {"NAME": "HIGHLANDS PARK HAMILTON", "MCD": "HAMILTON TWP", "COUNTY": "Mercer", "STATE": "NJ", "ADDRESS": "101  CYNTHIA WAY", "TYPE": "Park", "SUB_TYPE": "Municipal Park"}},{"geometry": {"type": "Point", "coordinates": [-74.66125109307603, 40.1656814700296]}, "type": "Feature", "id": 23, "properties": {"NAME": "HIGHLANDS TOT PARK", "MCD": "HAMILTON TWP", "COUNTY": "Mercer", "STATE": "NJ", "ADDRESS": "50  KRISTOPHER DR", "TYPE": "Park", "SUB_TYPE": "Municipal Park"}},{"geometry": {"type": "Point", "coordinates": [-74.52280842905847, 40.27083129311047]}, "type": "Feature", "id": 24, "properties": {"FAX": "6094905141", "NAME": "HIGHTSTOWN FD", "MCD": "HIGHTSTOWN BORO", "COUNTY": "Mercer", "PHONE": "6094481245", "STATE": "NJ", "ADDRESS": "140 N MAIN ST", "TYPE": "Emergency", "SUB_TYPE": "Fire"}},{"geometry": {"type": "Point", "coordinates": [-74.52243479227724, 40.27149630070641]}, "type": "Feature", "id": 25, "properties": {"NAME": "HIGHTSTOWN HISTORICAL SOCIETY", "MCD": "HIGHTSTOWN BORO", "COUNTY": "Mercer", "STATE": "NJ", "ADDRESS": "164 N MAIN ST", "TYPE": "Cultural", "SUB_TYPE": "Arts"}},{"geometry": {"type": "Point", "coordinates": [-74.5228329585886, 40.27115895162884]}, "type": "Feature", "id": 26, "properties": {"FAX": "6094430310", "NAME": "HIGHTSTOWN PD", "MCD": "HIGHTSTOWN BORO", "COUNTY": "Mercer", "PHONE": "6094481234", "STATE": "NJ", "ADDRESS": "148 N MAIN ST", "TYPE": "Emergency", "SUB_TYPE": "Police"}},{"geometry": {"type": "Point", "coordinates": [-74.52569333748961, 40.26849327687648]}, "type": "Feature", "id": 27, "properties": {"NAME": "US POST OFFICE HIGHTSTOWN", "MCD": "HIGHTSTOWN BORO", "COUNTY": "Mercer", "STATE": "NJ", "ADDRESS": "150  MERCER ST", "TYPE": "Government", "SUB_TYPE": "US Post Office"}},{"geometry": {"type": "Point", "coordinates": [-74.65320494100828, 40.37729547462281]}, "type": "Feature", "id": 28, "properties": {"NAME": "HILLTOP PARK", "MCD": "PRINCETON TWP", "COUNTY": "Mercer", "STATE": "NJ", "ADDRESS": "600  BUNN DR", "TYPE": "Park", "SUB_TYPE": "Municipal Park"}},{"geometry": {"type": "Point", "coordinates": [-74.76656898877005, 40.26189214664068]}, "type": "Feature", "id": 29, "properties": {"NAME": "HOLLOWBROOK PARK EWING", "MCD": "EWING TWP", "COUNTY": "Mercer", "STATE": "NJ", "ADDRESS": "200  HOLLOWBROOK RD", "TYPE": "Park", "SUB_TYPE": "Municipal Park"}},{"geometry": {"type": "Point", "coordinates": [-74.72977750253399, 40.2138969442378]}, "type": "Feature", "id": 30, "properties": {"NAME": "HOMDELL RECREATION CENTER HAMILTON", "MCD": "HAMILTON TWP", "COUNTY": "Mercer", "STATE": "NJ", "ADDRESS": "249  SCULLY AVE", "TYPE": "Park", "SUB_TYPE": "Municipal Park"}},{"geometry": {"type": "Point", "coordinates": [-74.76129737939745, 40.3870709971161]}, "type": "Feature", "id": 31, "properties": {"NAME": "HOPEWELL BORO PARK", "MCD": "HOPEWELL BORO", "COUNTY": "Mercer", "STATE": "NJ", "ADDRESS": "11 S GREENWOOD AVE", "TYPE": "Park", "SUB_TYPE": "Municipal Park"}},{"geometry": {"type": "Point", "coordinates": [-74.76086814139964, 40.38929791183765]}, "type": "Feature", "id": 32, "properties": {"FAX": "609-466-19", "NAME": "Hopewell Boro Public Library", "MCD": "HOPEWELL BORO", "COUNTY": "Mercer", "PHONE": "6094661625", "STATE": "NJ", "ADDRESS": "13 E BROAD ST", "TYPE": "Library", "SUB_TYPE": "Library"}},{"geometry": {"type": "Point", "coordinates": [-74.76114252223117, 40.38854396748602]}, "type": "Feature", "id": 33, "properties": {"FAX": "6094668590", "NAME": "HOPEWELL FIRE DEPARTMENT & EMERGENCY MEDICAL UNIT (SQUAD 152)", "MCD": "HOPEWELL BORO", "COUNTY": "Mercer", "PHONE": "6094660060", "STATE": "NJ", "ADDRESS": "4  COLUMBIA AVE", "TYPE": "Emergency", "SUB_TYPE": "Fire EMS"}},{"geometry": {"type": "Point", "coordinates": [-74.75990224444509, 40.3900154027153]}, "type": "Feature", "id": 34, "properties": {"NAME": "HOPEWELL MUSEUM", "MCD": "HOPEWELL BORO", "COUNTY": "Mercer", "PHONE": "6094660103", "STATE": "NJ", "ADDRESS": "28 E BROAD ST", "TYPE": "Cultural", "SUB_TYPE": "Museum"}},{"geometry": {"type": "Point", "coordinates": [-74.81442943634823, 40.30950644792518]}, "type": "Feature", "id": 35, "properties": {"FAX": "6097371775", "NAME": "HOPEWELL TWP POLICE", "MCD": "HOPEWELL TWP", "COUNTY": "Mercer", "PHONE": "6097379342", "STATE": "NJ", "ADDRESS": "201  PENNINGTON WASHINGTON CROSSING RD", "TYPE": "Emergency", "SUB_TYPE": "Police"}},{"geometry": {"type": "Point", "coordinates": [-74.79870146750261, 40.354501692792]}, "type": "Feature", "id": 36, "properties": {"NAME": "HOPEWELL VALLEY BASEBALLSOFTBALL ASSOCIATION", "MCD": "HOPEWELL TWP", "COUNTY": "Mercer", "PHONE": "6097379548", "STATE": "NJ", "ADDRESS": "120  RT 31  N", "TYPE": "Park", "SUB_TYPE": "Municipal Park"}},{"geometry": {"type": "Point", "coordinates": [-74.81442943634823, 40.30950644792518]}, "type": "Feature", "id": 37, "properties": {"FAX": "6097301563", "NAME": "HOPEWELL VALLEY ES FD", "MCD": "HOPEWELL TWP", "COUNTY": "Mercer", "PHONE": "6097308156", "STATE": "NJ", "ADDRESS": "201  PENNINGTON WASHINGTON CROSSING RD", "TYPE": "Emergency", "SUB_TYPE": "Fire EMS"}},{"geometry": {"type": "Point", "coordinates": [-74.90244973228229, 40.3410404588695]}, "type": "Feature", "id": 38, "properties": {"WEBSITE": "http://www.state.nj.us/counties/mercer/commissions/park/howell.html", "CITY": "Lambertville", "NAME": "Howell Living History Farm", "ZIP": "08530", "MCD": "HOPEWELL TWP", "COUNTY": "Mercer", "PHONE": "6097373299", "STATE": "NJ", "ADDRESS": "17 Valley Rd", "TYPE": "Park", "SUB_TYPE": "County Park"}},{"geometry": {"type": "Point", "coordinates": [-74.66803789481476, 40.33175909851163]}, "type": "Feature", "id": 39, "properties": {"NAME": "IAS INSTITUTE FOR ADVANCED STUDY", "MCD": "PRINCETON TWP", "COUNTY": "Mercer", "PHONE": "6097348000", "STATE": "NJ", "ADDRESS": "1  EINSTEIN DR", "TYPE": "College", "SUB_TYPE": "College"}},{"geometry": {"type": "Point", "coordinates": [-74.66803608675151, 40.331757636879466]}, "type": "Feature", "id": 40, "properties": {"NAME": "IAS Institute for Advanced Study Library", "MCD": "PRINCETON TWP", "COUNTY": "Mercer", "PHONE": "6097348193", "STATE": "NJ", "ADDRESS": "1  EINSTEIN DR", "TYPE": "Library", "SUB_TYPE": "Library"}},{"geometry": {"type": "Point", "coordinates": [-74.79785247515188, 40.27523273092363]}, "type": "Feature", "id": 42, "properties": {"NAME": "JOHN S WATSON PARK EWING", "MCD": "EWING TWP", "COUNTY": "Mercer", "STATE": "NJ", "ADDRESS": "207  UPPER FERRY RD", "TYPE": "Park", "SUB_TYPE": "Municipal Park"}},{"geometry": {"type": "Point", "coordinates": [-74.68163158308798, 40.274035291516206]}, "type": "Feature", "id": 43, "properties": {"FAX": "6097990429", "NAME": "JOHN T DEMPSTER FIRE TRAINING CTR", "MCD": "LAWRENCE TWP", "COUNTY": "Mercer", "PHONE": "6097990110", "STATE": "NJ", "ADDRESS": "350  LAWRENCE STATION RD", "TYPE": "Emergency", "SUB_TYPE": "Fire"}},{"geometry": {"type": "Point", "coordinates": [-74.73696299161125, 40.22793580544259]}, "type": "Feature", "id": 44, "properties": {"NAME": "K9 TRAINING SCHOOL TPD", "MCD": "TRENTON CITY", "COUNTY": "Mercer", "STATE": "NJ", "ADDRESS": "1277 E STATE ST", "TYPE": "Emergency", "SUB_TYPE": "Police"}},{"geometry": {"type": "Point", "coordinates": [-74.7912701814727, 40.2384173549309]}, "type": "Feature", "id": 45, "properties": {"NAME": "KIDDIE PLAYGROUND AREA", "MCD": "TRENTON CITY", "COUNTY": "Mercer", "STATE": "NJ", "ADDRESS": "14  BROADWAY CIR", "TYPE": "Park", "SUB_TYPE": "Municipal Park"}},{"geometry": {"type": "Point", "coordinates": [-74.78444499974435, 40.33286733287512]}, "type": "Feature", "id": 46, "properties": {"NAME": "KUNKEL PARK PENNINGTON", "MCD": "HAMILTON TWP", "COUNTY": "Mercer", "STATE": "NJ", "ADDRESS": "189  KING GEORGE RD", "TYPE": "Park", "SUB_TYPE": "Municipal Park"}},{"geometry": {"type": "Point", "coordinates": [-74.72156192781654, 40.215442226240484]}, "type": "Feature", "id": 47, "properties": {"NAME": "KUSER MANSION PARK", "MCD": "HAMILTON TWP", "COUNTY": "Mercer", "STATE": "NJ", "ADDRESS": "390  NEWKIRK AVE", "TYPE": "Park", "SUB_TYPE": "Municipal Park"}},{"geometry": {"type": "Point", "coordinates": [-74.721009921245, 40.21482722485027]}, "type": "Feature", "id": 48, "properties": {"NAME": "KUSER PARK HAMILTON", "MCD": "HAMILTON TWP", "COUNTY": "Mercer", "STATE": "NJ", "ADDRESS": "400  NEWKIRK AVE", "TYPE": "Park", "SUB_TYPE": "Municipal Park"}},{"geometry": {"type": "Point", "coordinates": [-74.8017854400497, 40.2723438531134]}, "type": "Feature", "id": 49, "properties": {"NAME": "LAMATO FIELD EWING", "MCD": "EWING TWP", "COUNTY": "Mercer", "STATE": "NJ", "ADDRESS": "30  CHIEF WILLIAM C FORST LN", "TYPE": "Park", "SUB_TYPE": "Municipal Park"}},{"geometry": {"type": "Point", "coordinates": [-74.76066997891293, 40.21053015086649]}, "type": "Feature", "id": 50, "properties": {"NAME": "LAMBERTON ST PARK", "MCD": "TRENTON CITY", "COUNTY": "Mercer", "STATE": "NJ", "ADDRESS": "428  LAMBERTON ST", "TYPE": "Park", "SUB_TYPE": "Municipal Park"}},{"geometry": {"type": "Point", "coordinates": [-74.73290967158701, 40.28278904949693]}, "type": "Feature", "id": 51, "properties": {"FAX": "6098968095", "NAME": "LAWRENCE PD", "MCD": "LAWRENCE TWP", "COUNTY": "Mercer", "PHONE": "6098961111", "STATE": "NJ", "ADDRESS": "2211  LAWRENCE RD", "TYPE": "Emergency", "SUB_TYPE": "Police"}},{"geometry": {"type": "Point", "coordinates": [-74.74017261390506, 40.26534545172032]}, "type": "Feature", "id": 52, "properties": {"FAX": "6095301880", "NAME": "LAWRENCE ROAD FD", "MCD": "LAWRENCE TWP", "COUNTY": "Mercer", "PHONE": "6098830559", "STATE": "NJ", "ADDRESS": "1252   LAWRENCE RD", "TYPE": "Emergency", "SUB_TYPE": "Fire"}},{"geometry": {"type": "Point", "coordinates": [-74.73122577484536, 40.29906815266711]}, "type": "Feature", "id": 53, "properties": {"FAX": "6098963433", "NAME": "LAWRENCEVILLE FD MAIN STATION", "MCD": "LAWRENCE TWP", "COUNTY": "Mercer", "PHONE": "6098960972", "STATE": "NJ", "ADDRESS": "64   PHILLIPS AVE", "TYPE": "Emergency", "SUB_TYPE": "Fire"}},{"geometry": {"type": "Point", "coordinates": [-74.67160587819147, 40.27753607828517]}, "type": "Feature", "id": 54, "properties": {"NAME": "LAWRENCEVILLE FD SUBSTATION", "MCD": "LAWRENCE TWP", "COUNTY": "Mercer", "PHONE": "6095870009", "STATE": "NJ", "ADDRESS": "23   LAWRENCE SQUARE BLVD", "TYPE": "Emergency", "SUB_TYPE": "Fire"}},{"geometry": {"type": "Point", "coordinates": [-74.72117986923595, 40.22258878357675]}, "type": "Feature", "id": 56, "properties": {"NAME": "LIBERTY PARK HAMILTON", "MCD": "HAMILTON TWP", "COUNTY": "Mercer", "STATE": "NJ", "ADDRESS": "2662  LIBERTY ST", "TYPE": "Park", "SUB_TYPE": "Municipal Park"}},{"geometry": {"type": "Point", "coordinates": [-74.77710358289683, 40.22862220044712]}, "type": "Feature", "id": 57, "properties": {"NAME": "LIFECOM", "MCD": "TRENTON CITY", "COUNTY": "Mercer", "PHONE": "6093943609", "STATE": "NJ", "ADDRESS": "65  PROSPECT ST", "TYPE": "Emergency", "SUB_TYPE": "EMS"}},{"geometry": {"type": "Point", "coordinates": [-74.6444099003663, 40.21586022752576]}, "type": "Feature", "id": 58, "properties": {"NAME": "LIMEWOOD DRIVE PARK HAMILTON", "MCD": "HAMILTON TWP", "COUNTY": "Mercer", "STATE": "NJ", "ADDRESS": "73  LIMEWOOD DR", "TYPE": "Park", "SUB_TYPE": "Municipal Park"}},{"geometry": {"type": "Point", "coordinates": [-74.75194144243918, 40.23820690056101]}, "type": "Feature", "id": 59, "properties": {"NAME": "LIPINSKI PARK", "MCD": "TRENTON CITY", "COUNTY": "Mercer", "STATE": "NJ", "ADDRESS": "19  HEIL AVE", "TYPE": "Park", "SUB_TYPE": "Municipal Park"}},{"geometry": {"type": "Point", "coordinates": [-74.6712376790251, 40.34175297365361]}, "type": "Feature", "id": 60, "properties": {"NAME": "MARQUAND PARK PRINCETON", "MCD": "PRINCETON BORO", "COUNTY": "Mercer", "STATE": "NJ", "ADDRESS": "10  LOVERS LN", "TYPE": "Park", "SUB_TYPE": "Municipal Park"}},{"geometry": {"type": "Point", "coordinates": [-74.728163619678, 40.19541414883531]}, "type": "Feature", "id": 61, "properties": {"NAME": "MCCLELLAN PARK HAMILTON", "MCD": "HAMILTON TWP", "COUNTY": "Mercer", "STATE": "NJ", "ADDRESS": "330  MCCLELLAN AVE", "TYPE": "Park", "SUB_TYPE": "Municipal Park"}},{"geometry": {"type": "Point", "coordinates": [-74.65809823798003, 40.34743660552485]}, "type": "Feature", "id": 62, "properties": {"NAME": "MCCORMICK HALL ART MUSEUM", "MCD": "PRINCETON BORO", "COUNTY": "Mercer", "PHONE": "6092583000", "STATE": "NJ", "ADDRESS": "89  NASSAU ST", "TYPE": "Cultural", "SUB_TYPE": "Museum"}},{"geometry": {"type": "Point", "coordinates": [-74.728331452765, 40.24182985400753]}, "type": "Feature", "id": 63, "properties": {"NAME": "MEDI TRANSPORT", "MCD": "HAMILTON TWP", "COUNTY": "Mercer", "PHONE": "6096310020", "STATE": "NJ", "ADDRESS": "63  SECOND AVE", "TYPE": "Emergency", "SUB_TYPE": "EMS"}},{"geometry": {"type": "Point", "coordinates": [-74.66235442889743, 40.35637756605024]}, "type": "Feature", "id": 64, "properties": {"NAME": "MEDICAL CENTER AT PRINCETON", "MCD": "PRINCETON BORO", "COUNTY": "Mercer", "PHONE": "6094974000", "STATE": "NJ", "ADDRESS": "253  WITHERSPOON ST", "TYPE": "Medical", "SUB_TYPE": "Hospital"}},{"geometry": {"type": "Point", "coordinates": [-74.52287963634343, 40.26945568211122]}, "type": "Feature", "id": 65, "properties": {"NAME": "MEMORIAL PARK HIGHTSTOWN", "MCD": "HIGHTSTOWN BORO", "COUNTY": "Mercer", "STATE": "NJ", "ADDRESS": "119 N MAIN ST", "TYPE": "Park", "SUB_TYPE": "Municipal Park"}},{"geometry": {"type": "Point", "coordinates": [-74.81783350390988, 40.275418695447776]}, "type": "Feature", "id": 66, "properties": {"FAX": "6098833084", "NAME": "MERCER AIRPORT CFR FD", "MCD": "EWING TWP", "COUNTY": "Mercer", "PHONE": "6098830336", "STATE": "NJ", "ADDRESS": "100   SAM WEINROTH DR", "TYPE": "Emergency", "SUB_TYPE": "Fire"}},{"geometry": {"type": "Point", "coordinates": [-74.65150525954309, 40.25390301727461]}, "type": "Feature", "id": 67, "properties": {"NAME": "MERCER COUNTY COMMUNITY COLLEGE", "MCD": "WEST WINDSOR TWP", "COUNTY": "Mercer", "PHONE": "6095864800", "STATE": "NJ", "ADDRESS": "1200  OLD TRENTON RD", "TYPE": "College", "SUB_TYPE": "College"}},{"geometry": {"type": "Point", "coordinates": [-74.7049365773084, 40.230618952426035]}, "type": "Feature", "id": 68, "properties": {"NAME": "MERCER COUNTY GERIATRIC CENTER", "MCD": "HAMILTON TWP", "COUNTY": "Mercer", "PHONE": "6095885800", "STATE": "NJ", "ADDRESS": "2300  HAMILTON AVE", "TYPE": "Park", "SUB_TYPE": "Municipal Park"}},{"geometry": {"type": "Point", "coordinates": [-74.63622806943344, 40.260138927323766]}, "type": "Feature", "id": 69, "properties": {"WEBSITE": "http://www.state.nj.us/counties/mercer/commissions/park/mercer_park.html", "NAME": "MERCER COUNTY PARK", "MCD": "WEST WINDSOR TWP", "COUNTY": "Mercer", "STATE": "NJ", "ADDRESS": "POST/OLD TRENTON", "TYPE": "Park", "SUB_TYPE": "County Park"}},{"geometry": {"type": "Point", "coordinates": [-74.76234849159508, 40.216484722709204]}, "type": "Feature", "id": 70, "properties": {"NAME": "MERCER COUNTY PROSECUTORS OFFICE ANNEX BUILDING", "MCD": "TRENTON CITY", "COUNTY": "Mercer", "STATE": "NJ", "ADDRESS": "214 S BROAD ST", "TYPE": "Emergency", "SUB_TYPE": "Police"}},{"geometry": {"type": "Point", "coordinates": [-74.63215041056564, 40.306546810318046]}, "type": "Feature", "id": 71, "properties": {"FAX": "6094432823", "NAME": "MERCER COUNTY RANGERS OFFICE", "MCD": "WEST WINDSOR TWP", "COUNTY": "Mercer", "PHONE": "6094438956", "STATE": "NJ", "ADDRESS": "334 S POST RD", "TYPE": "Emergency", "SUB_TYPE": "Police"}},{"geometry": {"type": "Point", "coordinates": [-74.76373438875498, 40.2171156365713]}, "type": "Feature", "id": 72, "properties": {"FAX": "6099896185", "NAME": "MERCER COUNTY SHERIFF PD", "MCD": "TRENTON CITY", "COUNTY": "Mercer", "PHONE": "6099896111", "STATE": "NJ", "ADDRESS": "175 S BROAD ST", "TYPE": "Emergency", "SUB_TYPE": "Police"}},{"geometry": {"type": "Point", "coordinates": [-74.81799104109089, 40.277009654045926]}, "type": "Feature", "id": 73, "properties": {"FAX": "6098820784", "NAME": "MERCER COUNTY SHERIFF TTN OFFICE", "MCD": "EWING TWP", "COUNTY": "Mercer", "PHONE": "6097711674", "STATE": "NJ", "ADDRESS": "1100  TERMINAL CIRCLE DR", "TYPE": "Emergency", "SUB_TYPE": "Police"}},{"geometry": {"type": "Point", "coordinates": [-74.6638432871283, 40.36020588205692]}, "type": "Feature", "id": 74, "properties": {"WEBSITE": "http://www.princetontwp.org/firedept3.html", "NAME": "MERCER ENGINE COMPANY NO 3 (PRINCETON FD 63)", "MCD": "PRINCETON TWP", "COUNTY": "Mercer", "PHONE": "6094977648", "STATE": "NJ", "ADDRESS": "363  WITHERSPOON ST", "TYPE": "Emergency", "SUB_TYPE": "Fire"}},{"geometry": {"type": "Point", "coordinates": [-74.75321699632208, 40.22686245672259]}, "type": "Feature", "id": 75, "properties": {"FAX": "6099894270", "NAME": "TRENTON POLICE DEPARTMENT", "MCD": "TRENTON CITY", "COUNTY": "Mercer", "PHONE": "6099894170", "STATE": "NJ", "ADDRESS": "225 N CLINTON AVE", "TYPE": "Emergency", "SUB_TYPE": "Police"}},{"geometry": {"type": "Point", "coordinates": [-74.80547517411186, 40.243567107891025]}, "type": "Feature", "id": 76, "properties": {"NAME": "TRENTON PSYCHIATRIC HOSPITAL", "MCD": "TRENTON CITY", "COUNTY": "Mercer", "PHONE": "(609) 633-1500", "STATE": "NJ", "ADDRESS": "98  SULLIVAN WAY", "TYPE": "Medical", "SUB_TYPE": "Hospital"}},{"geometry": {"type": "Point", "coordinates": [-74.65324422049643, 40.33169572182762]}, "type": "Feature", "id": 77, "properties": {"NAME": "TURNING BASIN PARK", "MCD": "PRINCETON TWP", "COUNTY": "Mercer", "STATE": "NJ", "ADDRESS": "500  ALEXANDER ST", "TYPE": "Park", "SUB_TYPE": "Municipal Park"}},{"geometry": {"type": "Point", "coordinates": [-74.53097943666941, 40.24037950570176]}, "type": "Feature", "id": 78, "properties": {"NAME": "TURNPIKE PARK EAST WINDSOR", "MCD": "EAST WINDSOR TWP", "COUNTY": "Mercer", "STATE": "NJ", "ADDRESS": "890  OLD YORK RD", "TYPE": "Park", "SUB_TYPE": "Municipal Park"}},{"geometry": {"type": "Point", "coordinates": [-74.87215644821097, 40.30381762699817]}, "type": "Feature", "id": 79, "properties": {"FAX": "6097377775", "NAME": "UNION FIRE COMPANY", "MCD": "HOPEWELL TWP", "COUNTY": "Mercer", "PHONE": "6097371213", "STATE": "NJ", "ADDRESS": "1396  RIVER RD", "TYPE": "Emergency", "SUB_TYPE": "Fire EMS"}},{"geometry": {"type": "Point", "coordinates": [-74.74998049199465, 40.207216735260985]}, "type": "Feature", "id": 80, "properties": {"NAME": "US POST OFFICE CHAMBERSBURG OFFICE", "MCD": "TRENTON CITY", "COUNTY": "Mercer", "STATE": "NJ", "ADDRESS": "852 S BROAD ST", "TYPE": "Government", "SUB_TYPE": "US Post Office"}},{"geometry": {"type": "Point", "coordinates": [-74.72321210793265, 40.26183738344723]}, "type": "Feature", "id": 81, "properties": {"NAME": "US POST OFFICE CIRCLE BRANCH", "MCD": "LAWRENCE TWP", "COUNTY": "Mercer", "STATE": "NJ", "ADDRESS": "2601  BRUNSWICK PKE", "TYPE": "Government", "SUB_TYPE": "US Post Office"}},{"geometry": {"type": "Point", "coordinates": [-74.76156646470862, 40.38829932379661]}, "type": "Feature", "id": 82, "properties": {"NAME": "US POST OFFICE HOPEWELL", "MCD": "HOPEWELL BORO", "COUNTY": "Mercer", "PHONE": "6094660462", "STATE": "NJ", "ADDRESS": "9 S GREENWOOD AVE", "TYPE": "Government", "SUB_TYPE": "US Post Office"}},{"geometry": {"type": "Point", "coordinates": [-74.7610509006004, 40.21936350287103]}, "type": "Feature", "id": 83, "properties": {"NAME": "US POST OFFICE MAIN BRANCH", "MCD": "TRENTON CITY", "COUNTY": "Mercer", "STATE": "NJ", "ADDRESS": "20 S MONTGOMERY ST", "TYPE": "Government", "SUB_TYPE": "US Post Office"}},{"geometry": {"type": "Point", "coordinates": [-74.63332406836209, 40.305888904696474]}, "type": "Feature", "id": 84, "properties": {"NAME": "US POST OFFICE PRINCETON JUNCTION", "MCD": "WEST WINDSOR TWP", "COUNTY": "Mercer", "PHONE": "6097991054", "STATE": "NJ", "ADDRESS": "331 N POST RD", "TYPE": "Government", "SUB_TYPE": "US Post Office"}},{"geometry": {"type": "Point", "coordinates": [-74.72022599463565, 40.192854786317824]}, "type": "Feature", "id": 85, "properties": {"NAME": "US POST OFFICE STATION C INDEPENDENCE PLAZA UNIT 1", "MCD": "HAMILTON TWP", "COUNTY": "Mercer", "PHONE": "6098880114", "STATE": "NJ", "ADDRESS": "2465 S BROAD ST", "TYPE": "Government", "SUB_TYPE": "US Post Office"}},{"geometry": {"type": "Point", "coordinates": [-74.87063166961241, 40.30192021603307]}, "type": "Feature", "id": 86, "properties": {"NAME": "US POST OFFICE TITUSVILLE", "MCD": "HOPEWELL TWP", "COUNTY": "Mercer", "PHONE": "6097372337", "STATE": "NJ", "ADDRESS": "1380  RIVER RD", "TYPE": "Government", "SUB_TYPE": "US Post Office"}},{"geometry": {"type": "Point", "coordinates": [-74.7337700734169, 40.21924755123066]}, "type": "Feature", "id": 87, "properties": {"NAME": "US POST OFFICE VILLA PARK BRANCH", "MCD": "TRENTON CITY", "COUNTY": "Mercer", "STATE": "NJ", "ADDRESS": "1137  HAMILTON AVE", "TYPE": "Government", "SUB_TYPE": "US Post Office"}},{"geometry": {"type": "Point", "coordinates": [-74.81893931400802, 40.26456732763356]}, "type": "Feature", "id": 88, "properties": {"NAME": "US POST OFFICE WEST TRENTON", "MCD": "EWING TWP", "COUNTY": "Mercer", "STATE": "NJ", "ADDRESS": "555  GRAND AVE", "TYPE": "Government", "SUB_TYPE": "US Post Office"}},{"geometry": {"type": "Point", "coordinates": [-74.64795804301255, 40.19251383950358]}, "type": "Feature", "id": 89, "properties": {"NAME": "US POST OFFICE US 130", "MCD": "HAMILTON TWP", "COUNTY": "Mercer", "STATE": "NJ", "ADDRESS": "680  RT 130", "TYPE": "Government", "SUB_TYPE": "US Post Office"}},{"geometry": {"type": "Point", "coordinates": [-74.690943058276, 40.252513843083534]}, "type": "Feature", "id": 90, "properties": {"NAME": "VAN HORN PARK", "MCD": "HAMILTON TWP", "COUNTY": "Mercer", "STATE": "NJ", "ADDRESS": "12  FERNDALE AVE", "TYPE": "Park", "SUB_TYPE": "Municipal Park"}},{"geometry": {"type": "Point", "coordinates": [-74.6117279358328, 40.31806844374617]}, "type": "Feature", "id": 91, "properties": {"NAME": "VAN NEST PARK WEST WINDSOR", "MCD": "WEST WINDSOR TWP", "COUNTY": "Mercer", "STATE": "NJ", "ADDRESS": "100  CRANBURY RD", "TYPE": "Park", "SUB_TYPE": "Municipal Park"}},{"geometry": {"type": "Point", "coordinates": [-74.76418233918754, 40.21996441967682]}, "type": "Feature", "id": 92, "properties": {"NAME": "VETERAN'S PARK", "MCD": "TRENTON CITY", "COUNTY": "Mercer", "STATE": "NJ", "ADDRESS": "101 E STATE ST", "TYPE": "Park", "SUB_TYPE": "Municipal Park"}},{"geometry": {"type": "Point", "coordinates": [-74.53726385168338, 40.28855512837395]}, "type": "Feature", "id": 93, "properties": {"NAME": "VETERANS PARK EAST WINDSOR", "MCD": "EAST WINDSOR TWP", "COUNTY": "Mercer", "STATE": "NJ", "ADDRESS": "1  VETERANS PARK LN", "TYPE": "Park", "SUB_TYPE": "Municipal Park"}},{"geometry": {"type": "Point", "coordinates": [-74.66188516250384, 40.21135898525865]}, "type": "Feature", "id": 94, "properties": {"NAME": "VETERANS PARK HAMILTON EAST ENTRANCE", "MCD": "HAMILTON TWP", "COUNTY": "Mercer", "STATE": "NJ", "ADDRESS": "1799  YARDVILLE HAMILTON SQUARE RD", "TYPE": "Park", "SUB_TYPE": "Municipal Park"}},{"geometry": {"type": "Point", "coordinates": [-74.66618453633488, 40.21616133534961]}, "type": "Feature", "id": 95, "properties": {"NAME": "VETERANS PARK HAMILTON NORTH ENTRANCE", "MCD": "HAMILTON TWP", "COUNTY": "Mercer", "STATE": "NJ", "ADDRESS": "2845  KLOCKNER RD", "TYPE": "Park", "SUB_TYPE": "Municipal Park"}},{"geometry": {"type": "Point", "coordinates": [-74.68190617140995, 40.20278158928953]}, "type": "Feature", "id": 96, "properties": {"NAME": "VETERANS PARK HAMILTON SOUTH ENTRANCE", "MCD": "HAMILTON TWP", "COUNTY": "Mercer", "STATE": "NJ", "ADDRESS": "2142  KUSER RD", "TYPE": "Park", "SUB_TYPE": "Municipal Park"}},{"geometry": {"type": "Point", "coordinates": [-74.67682904827575, 40.214828786759895]}, "type": "Feature", "id": 97, "properties": {"NAME": "VETERANS PARK HAMILTON WEST ENTRANCE", "MCD": "HAMILTON TWP", "COUNTY": "Mercer", "STATE": "NJ", "ADDRESS": "1739  WHITE HORSE HAMILTON SQUARE RD", "TYPE": "Park", "SUB_TYPE": "Municipal Park"}},{"geometry": {"type": "Point", "coordinates": [-74.73355598411018, 40.269472493438286]}, "type": "Feature", "id": 98, "properties": {"NAME": "VETERANS PARK LAWRENCE", "MCD": "LAWRENCE TWP", "COUNTY": "Mercer", "STATE": "NJ", "ADDRESS": "120  OAKLYN TER", "TYPE": "Park", "SUB_TYPE": "Municipal Park"}},{"geometry": {"type": "Point", "coordinates": [-74.78685506339592, 40.281688155238086]}, "type": "Feature", "id": 99, "properties": {"NAME": "VILLAGE ON THE GREEN PARK EWING", "MCD": "EWING TWP", "COUNTY": "Mercer", "STATE": "NJ", "ADDRESS": "12  SABRINA DR", "TYPE": "Park", "SUB_TYPE": "Municipal Park"}},{"geometry": {"type": "Point", "coordinates": [-74.74228467517312, 40.30492950889811]}, "type": "Feature", "id": 100, "properties": {"NAME": "VILLAGE PARK LAWRENCE", "MCD": "LAWRENCE TWP", "COUNTY": "Mercer", "STATE": "NJ", "ADDRESS": "100  YEGER DR", "TYPE": "Park", "SUB_TYPE": "Municipal Park"}},{"geometry": {"type": "Point", "coordinates": [-74.76960497391966, 40.22113938852132]}, "type": "Feature", "id": 101, "properties": {"NAME": "W STATE ST MINI PARK OPP STATE HOUSE", "MCD": "TRENTON CITY", "COUNTY": "Mercer", "STATE": "NJ", "ADDRESS": "136 W STATE ST", "TYPE": "Park", "SUB_TYPE": "Municipal Park"}},{"geometry": {"type": "Point", "coordinates": [-74.7915722598877, 40.23286187724819]}, "type": "Feature", "id": 102, "properties": {"NAME": "W STATE ST SPORTS FIELD", "MCD": "TRENTON CITY", "COUNTY": "Mercer", "STATE": "NJ", "ADDRESS": "1000 W STATE ST", "TYPE": "Park", "SUB_TYPE": "Municipal Park"}},{"geometry": {"type": "Point", "coordinates": [-74.74273902660643, 40.223506608424884]}, "type": "Feature", "id": 103, "properties": {"NAME": "WALNUT AV MINI PARK", "MCD": "TRENTON CITY", "COUNTY": "Mercer", "STATE": "NJ", "ADDRESS": "355  WALNUT AVE", "TYPE": "Park", "SUB_TYPE": "Municipal Park"}},{"geometry": {"type": "Point", "coordinates": [-74.68684707171627, 40.24668261346249]}, "type": "Feature", "id": 104, "properties": {"NAME": "WARWICK PARK HAMILTON", "MCD": "HAMILTON TWP", "COUNTY": "Mercer", "STATE": "NJ", "ADDRESS": "3082  QUAKERBRIDGE RD", "TYPE": "Park", "SUB_TYPE": "Municipal Park"}},{"geometry": {"type": "Point", "coordinates": [-74.86234573319166, 40.30205843646356]}, "type": "Feature", "id": 105, "properties": {"NAME": "WASHINGTON CROSSING STATE PARK", "MCD": "HOPEWELL TWP", "COUNTY": "Mercer", "STATE": "NJ", "ADDRESS": "WASHINGTON CROSSING STATE PARK", "TYPE": "Park", "SUB_TYPE": "State Park"}},{"geometry": {"type": "Point", "coordinates": [-74.61215445655894, 40.22142788919748]}, "type": "Feature", "id": 106, "properties": {"FAX": "6092593869", "NAME": "WASHINGTON FD", "MCD": "WASHINGTON TWP", "COUNTY": "Mercer", "PHONE": "6092597814", "STATE": "NJ", "ADDRESS": "1149  RT 130", "TYPE": "Emergency", "SUB_TYPE": "Fire"}},{"geometry": {"type": "Point", "coordinates": [-74.58207083093245, 40.208950421528236]}, "type": "Feature", "id": 107, "properties": {"NAME": "WASHINGTON TWP COMMUNITY PARK", "MCD": "WASHINGTON TWP", "COUNTY": "Mercer", "STATE": "NJ", "ADDRESS": "15 W MANOR WAY", "TYPE": "Park", "SUB_TYPE": "Municipal Park"}},{"geometry": {"type": "Point", "coordinates": [-74.634682812046, 40.22201891681839]}, "type": "Feature", "id": 108, "properties": {"NAME": "WASHINGTON TWP PD SUB STATION", "MCD": "WASHINGTON TWP", "COUNTY": "Mercer", "STATE": "NJ", "ADDRESS": "1201  WASHINGTON BLVD", "TYPE": "Emergency", "SUB_TYPE": "Police"}},{"geometry": {"type": "Point", "coordinates": [-74.62078284911973, 40.21514138797958]}, "type": "Feature", "id": 109, "properties": {"FAX": "6092590506", "NAME": "WASHINGTON TWP POLICE DEPARTMENT", "MCD": "WASHINGTON TWP", "COUNTY": "Mercer", "PHONE": "6092593900", "STATE": "NJ", "ADDRESS": "1117  RT 130", "TYPE": "Emergency", "SUB_TYPE": "Police"}},{"geometry": {"type": "Point", "coordinates": [-74.62012463271722, 40.215727460492566]}, "type": "Feature", "id": 110, "properties": {"NAME": "WASHINGTON TWP SKATE PARK", "MCD": "WASHINGTON TWP", "COUNTY": "Mercer", "STATE": "NJ", "ADDRESS": "1119  RT 130", "TYPE": "Park", "SUB_TYPE": "Municipal Park"}},{"geometry": {"type": "Point", "coordinates": [-74.7609968729125, 40.20334507929216]}, "type": "Feature", "id": 111, "properties": {"NAME": "WATERFRONT PARK (TRENTON THUNDER)", "MCD": "TRENTON CITY", "COUNTY": "Mercer", "STATE": "NJ", "ADDRESS": "1  CASS ST", "TYPE": "Park", "SUB_TYPE": "County Park"}},{"geometry": {"type": "Point", "coordinates": [-74.60562427448922, 40.15737825885128]}, "type": "Feature", "id": 112, "properties": {"NAME": "WEST ACRES PARK HAMILTON", "MCD": "HAMILTON TWP", "COUNTY": "Mercer", "STATE": "NJ", "ADDRESS": "20  OLD POST LN", "TYPE": "Park", "SUB_TYPE": "Municipal Park"}},{"geometry": {"type": "Point", "coordinates": [-74.81769542186852, 40.267099459691664]}, "type": "Feature", "id": 113, "properties": {"FAX": "6098833084", "NAME": "WEST TRENTON VOL FIRE CO", "MCD": "EWING TWP", "COUNTY": "Mercer", "PHONE": "6098830336", "STATE": "NJ", "ADDRESS": "40 W UPPER FERRY RD", "TYPE": "Emergency", "SUB_TYPE": "Fire"}},{"geometry": {"type": "Point", "coordinates": [-74.60579460773202, 40.300632937380115]}, "type": "Feature", "id": 114, "properties": {"NAME": "WEST WINDSOR COMMUNITY PARK", "MCD": "WEST WINDSOR TWP", "COUNTY": "Mercer", "STATE": "NJ", "ADDRESS": "1  BERT MIDLAND RD", "TYPE": "Park", "SUB_TYPE": "Municipal Park"}},{"geometry": {"type": "Point", "coordinates": [-74.6329902925892, 40.30470829324523]}, "type": "Feature", "id": 115, "properties": {"FAX": "6099361424", "NAME": "WEST WINDSOR ES FD", "MCD": "WEST WINDSOR TWP", "COUNTY": "Mercer", "PHONE": "6097998735", "STATE": "NJ", "ADDRESS": "20  MUNICIPAL DR", "TYPE": "Emergency", "SUB_TYPE": "Fire"}},{"geometry": {"type": "Point", "coordinates": [-74.61284322983978, 40.28298083144829]}, "type": "Feature", "id": 116, "properties": {"FAX": "6097990799", "NAME": "WEST WINDSOR FD", "MCD": "WEST WINDSOR TWP", "COUNTY": "Mercer", "PHONE": "6097993311", "STATE": "NJ", "ADDRESS": "153 S MILL RD", "TYPE": "Emergency", "SUB_TYPE": "Fire"}},{"geometry": {"type": "Point", "coordinates": [-74.6329902925892, 40.30470829324523]}, "type": "Feature", "id": 117, "properties": {"FAX": "6097996338", "NAME": "WEST WINDSOR PD", "MCD": "WEST WINDSOR TWP", "COUNTY": "Mercer", "PHONE": "6097991222", "STATE": "NJ", "ADDRESS": "20   MUNICIPAL DR", "TYPE": "Emergency", "SUB_TYPE": "Police"}},{"geometry": {"type": "Point", "coordinates": [-74.54139729955558, 40.26680760690472]}, "type": "Feature", "id": 118, "properties": {"NAME": "WESTFIELD ROAD PARK EAST WINDSOR", "MCD": "EAST WINDSOR TWP", "COUNTY": "Mercer", "STATE": "NJ", "ADDRESS": "20  WESTFIELD RD", "TYPE": "Park", "SUB_TYPE": "Municipal Park"}},{"geometry": {"type": "Point", "coordinates": [-74.70347824734678, 40.18925709414854]}, "type": "Feature", "id": 119, "properties": {"FAX": "6095852649", "NAME": "WHITE HORSE FD", "MCD": "HAMILTON TWP", "COUNTY": "Mercer", "PHONE": "6095857383", "STATE": "NJ", "ADDRESS": "19   LOCUST AVE", "TYPE": "Emergency", "SUB_TYPE": "Fire"}},{"geometry": {"type": "Point", "coordinates": [-74.72965405690292, 40.24418836882993]}, "type": "Feature", "id": 120, "properties": {"NAME": "WHITEHEAD PARK HAMILTON", "MCD": "HAMILTON TWP", "COUNTY": "Mercer", "STATE": "NJ", "ADDRESS": "100  FOURTH ST", "TYPE": "Park", "SUB_TYPE": "Municipal Park"}},{"geometry": {"type": "Point", "coordinates": [-74.74836724091168, 40.21002195950863]}, "type": "Feature", "id": 121, "properties": {"NAME": "WHITTAKER AV PARK", "MCD": "TRENTON CITY", "COUNTY": "Mercer", "STATE": "NJ", "ADDRESS": "100  EMORY AVE", "TYPE": "Park", "SUB_TYPE": "Municipal Park"}},{"geometry": {"type": "Point", "coordinates": [-74.7273618283606, 40.194449002835476]}, "type": "Feature", "id": 122, "properties": {"NAME": "WILLEY RECREATION CENTER", "MCD": "HAMILTON TWP", "COUNTY": "Mercer", "STATE": "NJ", "ADDRESS": "310  ROWAN AVE", "TYPE": "Park", "SUB_TYPE": "Municipal Park"}},{"geometry": {"type": "Point", "coordinates": [-74.76613882929907, 40.21307766340805]}, "type": "Feature", "id": 123, "properties": {"NAME": "WILLIAM TRENT HOUSE", "MCD": "TRENTON CITY", "COUNTY": "Mercer", "STATE": "NJ", "ADDRESS": "15  MARKET ST", "TYPE": "Cultural", "SUB_TYPE": "Museum"}},{"geometry": {"type": "Point", "coordinates": [-74.56794422621113, 40.271902298672146]}, "type": "Feature", "id": 124, "properties": {"NAME": "WILTSHIRE PARK EAST WINDSOR", "MCD": "EAST WINDSOR TWP", "COUNTY": "Mercer", "STATE": "NJ", "ADDRESS": "23  WILTSHIRE DR", "TYPE": "Park", "SUB_TYPE": "Municipal Park"}},{"geometry": {"type": "Point", "coordinates": [-74.69593030332626, 40.368229483701235]}, "type": "Feature", "id": 125, "properties": {"NAME": "WOODFIELD RESERVATION PRINCETON", "MCD": "PRINCETON TWP", "COUNTY": "Mercer", "STATE": "NJ", "ADDRESS": "916  GREAT RD", "TYPE": "Park", "SUB_TYPE": "Municipal Park"}},{"geometry": {"type": "Point", "coordinates": [-74.5404518544282, 40.24660201006021]}, "type": "Feature", "id": 126, "properties": {"NAME": "WOODS ROAD COMMUNITY PARK EAST WINDSOR", "MCD": "EAST WINDSOR TWP", "COUNTY": "Mercer", "STATE": "NJ", "ADDRESS": "57  WOODS RD", "TYPE": "Park", "SUB_TYPE": "Municipal Park"}},{"geometry": {"type": "Point", "coordinates": [-74.58331260085188, 40.288017094508824]}, "type": "Feature", "id": 127, "properties": {"NAME": "ZAITZ PARK WEST WINDSOR", "MCD": "WEST WINDSOR TWP", "COUNTY": "Mercer", "STATE": "NJ", "ADDRESS": "50  SOUTHFIELD RD", "TYPE": "Park", "SUB_TYPE": "Municipal Park"}},{"geometry": {"type": "Point", "coordinates": [-74.71795494025912, 40.2355022868085]}, "type": "Feature", "id": 128, "properties": {"NAME": "ZEITZ BUILDING", "MCD": "HAMILTON TWP", "COUNTY": "Mercer", "STATE": "NJ", "ADDRESS": "18  FAIRGROUNDS RD", "TYPE": "Cultural", "SUB_TYPE": "Arts"}},{"geometry": {"type": "Point", "coordinates": [-74.80626296711853, 40.27547872893292]}, "type": "Feature", "id": 129, "properties": {"NAME": "1159 MEDICAL AIR AMBULANCE", "MCD": "EWING TWP", "COUNTY": "Mercer", "PHONE": "6095305914", "STATE": "NJ", "ADDRESS": "152  SCOTCH RD", "TYPE": "Emergency", "SUB_TYPE": "EMS"}},{"geometry": {"type": "Point", "coordinates": [-74.74738871809376, 40.19611017539138]}, "type": "Feature", "id": 130, "properties": {"NAME": "611 BALLFIELD", "MCD": "HAMILTON TWP", "COUNTY": "Mercer", "STATE": "NJ", "ADDRESS": "220  BUNTING AVE", "TYPE": "Park", "SUB_TYPE": "Municipal Park"}},{"geometry": {"type": "Point", "coordinates": [-74.56292596577514, 40.26659094693752]}, "type": "Feature", "id": 131, "properties": {"NAME": "ANKER PARK", "MCD": "EAST WINDSOR TWP", "COUNTY": "Mercer", "STATE": "NJ", "ADDRESS": "200  HICKORY CORNER RD", "TYPE": "Park", "SUB_TYPE": "Municipal Park"}},{"geometry": {"type": "Point", "coordinates": [-74.6710662475547, 40.186409133338486]}, "type": "Feature", "id": 132, "properties": {"NAME": "APOLLO PARK HAMILTON", "MCD": "HAMILTON TWP", "COUNTY": "Mercer", "STATE": "NJ", "ADDRESS": "13  APOLLO DR", "TYPE": "Park", "SUB_TYPE": "Municipal Park"}},{"geometry": {"type": "Point", "coordinates": [-74.76557076886971, 40.27011060214254]}, "type": "Feature", "id": 133, "properties": {"NAME": "ARMSTRONG PARK EWING", "MCD": "EWING TWP", "COUNTY": "Mercer", "STATE": "NJ", "ADDRESS": "344  GREEN LN", "TYPE": "Park", "SUB_TYPE": "Municipal Park"}},{"geometry": {"type": "Point", "coordinates": [-74.7430414750043, 40.242291207548185]}, "type": "Feature", "id": 134, "properties": {"NAME": "ARTIST SHOWCASE THEATRE", "MCD": "TRENTON CITY", "COUNTY": "Mercer", "STATE": "NJ", "ADDRESS": "1150  INDIANA AVE", "TYPE": "Cultural", "SUB_TYPE": "Arts"}},{"geometry": {"type": "Point", "coordinates": [-74.63764961663284, 40.385368394049245]}, "type": "Feature", "id": 135, "properties": {"NAME": "AUTUMN HILL RESERVATION", "MCD": "PRINCETON TWP", "COUNTY": "Mercer", "STATE": "NJ", "ADDRESS": "577  HERRONTOWN RD", "TYPE": "Park", "SUB_TYPE": "Municipal Park"}},{"geometry": {"type": "Point", "coordinates": [-74.88331357027629, 40.32850712559748]}, "type": "Feature", "id": 136, "properties": {"WEBSITE": "http://www.state.nj.us/counties/mercer/commissions/park/baldpate.html", "NAME": "BALDPATE MOUNTAIN", "MCD": "HOPEWELL TWP", "COUNTY": "Mercer", "STATE": "NJ", "ADDRESS": "24  FIDDLERS CREEK RD", "TYPE": "Park", "SUB_TYPE": "County Park"}},{"geometry": {"type": "Point", "coordinates": [-74.84161470069053, 40.28025104221366]}, "type": "Feature", "id": 137, "properties": {"NAME": "BANCHOFF PARK EWING", "MCD": "EWING TWP", "COUNTY": "Mercer", "STATE": "NJ", "ADDRESS": "75  MOUNTAINVIEW RD", "TYPE": "Park", "SUB_TYPE": "Municipal Park"}},{"geometry": {"type": "Point", "coordinates": [-74.52645436831477, 40.272711125013444]}, "type": "Feature", "id": 138, "properties": {"NAME": "BANK ST PARK HIGHTSTOWN", "MCD": "HIGHTSTOWN BORO", "COUNTY": "Mercer", "STATE": "NJ", "ADDRESS": "152  BANK ST", "TYPE": "Park", "SUB_TYPE": "Municipal Park"}},{"geometry": {"type": "Point", "coordinates": [-74.65266888906966, 40.3542875638994]}, "type": "Feature", "id": 139, "properties": {"NAME": "BARBARA BOGGS SIGMUND MEMORIAL GARDEN", "MCD": "PRINCETON BORO", "COUNTY": "Mercer", "STATE": "NJ", "ADDRESS": "47  CHESTNUT ST", "TYPE": "Park", "SUB_TYPE": "Municipal Park"}},{"geometry": {"type": "Point", "coordinates": [-74.7915722598877, 40.23286187724819]}, "type": "Feature", "id": 140, "properties": {"NAME": "BASKETBALL COURTS", "MCD": "TRENTON CITY", "COUNTY": "Mercer", "STATE": "NJ", "ADDRESS": "1000 W STATE ST", "TYPE": "Park", "SUB_TYPE": "Municipal Park"}},{"geometry": {"type": "Point", "coordinates": [-74.7611825586597, 40.21459864084436]}, "type": "Feature", "id": 141, "properties": {"NAME": "BATTLE MONUMENT PARK", "MCD": "TRENTON CITY", "COUNTY": "Mercer", "STATE": "NJ", "ADDRESS": "337 N BROAD ST", "TYPE": "Park", "SUB_TYPE": "Municipal Park"}},{"geometry": {"type": "Point", "coordinates": [-74.7503366567757, 40.204546953998744]}, "type": "Feature", "id": 142, "properties": {"NAME": "BEATTY ST PARK", "MCD": "TRENTON CITY", "COUNTY": "Mercer", "STATE": "NJ", "ADDRESS": "620  BEATTY ST", "TYPE": "Park", "SUB_TYPE": "Municipal Park"}},{"geometry": {"type": "Point", "coordinates": [-74.9239007966639, 40.336290620705576]}, "type": "Feature", "id": 143, "properties": {"NAME": "BELLE MOUNTAIN", "MCD": "HOPEWELL TWP", "COUNTY": "Mercer", "STATE": "NJ", "ADDRESS": "15  VALLEY RD", "TYPE": "Park", "SUB_TYPE": "County Park"}},{"geometry": {"type": "Point", "coordinates": [-74.72688483359786, 40.28902875256872]}, "type": "Feature", "id": 144, "properties": {"NAME": "BEN FRANKLIN SWIM CLUB", "MCD": "LAWRENCE TWP", "COUNTY": "Mercer", "PHONE": "6098969651", "STATE": "NJ", "ADDRESS": "99  LEWISVILLE RD", "TYPE": "Park", "SUB_TYPE": "Municipal Park"}},{"geometry": {"type": "Point", "coordinates": [-74.7710820463103, 40.27949209807593]}, "type": "Feature", "id": 145, "properties": {"NAME": "BENJAMIN TEMPLE HOUSE", "MCD": "EWING TWP", "COUNTY": "Mercer", "PHONE": "(609) 530-1220", "STATE": "NJ", "ADDRESS": "27   FEDERAL CITY RD", "TYPE": "Cultural", "SUB_TYPE": "Museum"}},{"geometry": {"type": "Point", "coordinates": [-74.66113708334196, 40.23020229557016]}, "type": "Feature", "id": 146, "properties": {"NAME": "BERNARD FOLEY PARK HAMILTON", "MCD": "HAMILTON TWP", "COUNTY": "Mercer", "STATE": "NJ", "ADDRESS": "3704  NOTTINGHAM WAY", "TYPE": "Park", "SUB_TYPE": "Municipal Park"}},{"geometry": {"type": "Point", "coordinates": [-74.74299642506637, 40.234564562557075]}, "type": "Feature", "id": 147, "properties": {"NAME": "BREUNIG AV PARK", "MCD": "TRENTON CITY", "COUNTY": "Mercer", "STATE": "NJ", "ADDRESS": "14  BREUNIG AVE", "TYPE": "Park", "SUB_TYPE": "Municipal Park"}},{"geometry": {"type": "Point", "coordinates": [-74.70231029130048, 40.31848929544272]}, "type": "Feature", "id": 148, "properties": {"FAX": "6092526062", "NAME": "BRISTOL MYERS SQUIBB FD", "MCD": "LAWRENCE TWP", "COUNTY": "Mercer", "PHONE": "6092525853", "STATE": "NJ", "ADDRESS": "3555  LAWRENCE RD", "TYPE": "Emergency", "SUB_TYPE": "Fire"}},{"geometry": {"type": "Point", "coordinates": [-74.73083104662922, 40.23281529805926]}, "type": "Feature", "id": 149, "properties": {"NAME": "BROMLEY PARK HAMILTON", "MCD": "HAMILTON TWP", "COUNTY": "Mercer", "STATE": "NJ", "ADDRESS": "1677 E STATE ST", "TYPE": "Park", "SUB_TYPE": "Municipal Park"}},{"geometry": {"type": "Point", "coordinates": [-74.71502407949515, 40.22322884164458]}, "type": "Feature", "id": 150, "properties": {"NAME": "BROOK LANE PARK HAMILTON", "MCD": "HAMILTON TWP", "COUNTY": "Mercer", "STATE": "NJ", "ADDRESS": "100  BROOK LN", "TYPE": "Park", "SUB_TYPE": "Municipal Park"}},{"geometry": {"type": "Point", "coordinates": [-74.78724861373796, 40.23662295965812]}, "type": "Feature", "id": 151, "properties": {"NAME": "CADWALDER PARK", "MCD": "TRENTON CITY", "COUNTY": "Mercer", "STATE": "NJ", "ADDRESS": "2  BROADWAY CIR", "TYPE": "Park", "SUB_TYPE": "Municipal Park"}},{"geometry": {"type": "Point", "coordinates": [-74.62852378733773, 40.375611222817255]}, "type": "Feature", "id": 152, "properties": {"NAME": "CALDWELL PARK PRINCETON", "MCD": "PRINCETON TWP", "COUNTY": "Mercer", "STATE": "NJ", "ADDRESS": "154  BERTRAND DR", "TYPE": "Park", "SUB_TYPE": "Municipal Park"}},{"geometry": {"type": "Point", "coordinates": [-74.75248736808653, 40.23586105350198]}, "type": "Feature", "id": 153, "properties": {"NAME": "CAPITAL HEALTH FULD", "MCD": "TRENTON CITY", "COUNTY": "Mercer", "PHONE": "6093946000", "STATE": "NJ", "ADDRESS": "750  BRUNSWICK AVE", "TYPE": "Medical", "SUB_TYPE": "Hospital"}},{"geometry": {"type": "Point", "coordinates": [-74.77673099780898, 40.23016786177211]}, "type": "Feature", "id": 154, "properties": {"NAME": "CAPITAL HEALTH SYSTEM MERCER CAMPUS", "MCD": "TRENTON CITY", "COUNTY": "Mercer", "PHONE": "6093944000", "STATE": "NJ", "ADDRESS": "446  BELLEVUE AVE", "TYPE": "Medical", "SUB_TYPE": "Hospital"}},{"geometry": {"type": "Point", "coordinates": [-74.75148255612106, 40.24481356965905]}, "type": "Feature", "id": 155, "properties": {"NAME": "TRENTON FARMERS MARKET", "MCD": "LAWRENCE TWP", "COUNTY": "Mercer", "PHONE": "6095871804", "STATE": "NJ", "ADDRESS": "960  SPRUCE ST", "TYPE": "Cultural", "SUB_TYPE": "Arts"}},{"geometry": {"type": "Point", "coordinates": [-74.72918882290666, 40.20379283712747]}, "type": "Feature", "id": 156, "properties": {"NAME": "CEDAR LAWN PARK HAMILTON", "MCD": "HAMILTON TWP", "COUNTY": "Mercer", "STATE": "NJ", "ADDRESS": "143  WILFRED AVE", "TYPE": "Park", "SUB_TYPE": "Municipal Park"}},{"geometry": {"type": "Point", "coordinates": [-74.51106482171909, 40.24335964226264]}, "type": "Feature", "id": 157, "properties": {"NAME": "CEDARVILLE COUNTRY DAY CAMP", "MCD": "EAST WINDSOR TWP", "COUNTY": "Mercer", "PHONE": "6094483881", "STATE": "NJ", "ADDRESS": "148  CEDARVILLE RD", "TYPE": "Recreational", "SUB_TYPE": "Summer Camp"}},{"geometry": {"type": "Point", "coordinates": [-74.77710358289683, 40.22862220044712]}, "type": "Feature", "id": 158, "properties": {"NAME": "Center For Emergency Medical Services (SQUAD 179 CHS)", "MCD": "TRENTON CITY", "COUNTY": "Mercer", "PHONE": "6093943600", "STATE": "NJ", "ADDRESS": "65  PROSPECT ST", "TYPE": "Emergency", "SUB_TYPE": "EMS"}},{"geometry": {"type": "Point", "coordinates": [-74.74528017691578, 40.274418545780115]}, "type": "Feature", "id": 159, "properties": {"NAME": "CENTRAL PARK LAWRENCE", "MCD": "LAWRENCE TWP", "COUNTY": "Mercer", "STATE": "NJ", "ADDRESS": "1  PEZZICOLA WAY", "TYPE": "Park", "SUB_TYPE": "Municipal Park"}},{"geometry": {"type": "Point", "coordinates": [-74.65937638224678, 40.327227202070205]}, "type": "Feature", "id": 160, "properties": {"NAME": "CHARLES ROGERS WILDLIFE REFUGE", "MCD": "PRINCETON TWP", "COUNTY": "Mercer", "STATE": "NJ", "ADDRESS": "11  WEST DR", "TYPE": "Park", "SUB_TYPE": "Municipal Park"}},{"geometry": {"type": "Point", "coordinates": [-74.74748116426233, 40.20426371397211]}, "type": "Feature", "id": 161, "properties": {"NAME": "CHESTNUT AV PARK", "MCD": "TRENTON CITY", "COUNTY": "Mercer", "STATE": "NJ", "ADDRESS": "1579  CHESTNUT AVE", "TYPE": "Park", "SUB_TYPE": "Municipal Park"}},{"geometry": {"type": "Point", "coordinates": [-74.81140809684562, 40.2836064049755]}, "type": "Feature", "id": 162, "properties": {"WEBSITE": "http://twinpine.njwg.cap.gov/", "FAX": "6095380506", "NAME": "CIVIL AIR PATROL", "MCD": "EWING TWP", "COUNTY": "Mercer", "PHONE": "6098838380", "STATE": "NJ", "ADDRESS": "1  TRENTON MERCER AIRPORT", "TYPE": "Emergency", "SUB_TYPE": "Police"}},{"geometry": {"type": "Point", "coordinates": [-74.71238990120038, 40.216657378202804]}, "type": "Feature", "id": 163, "properties": {"FAX": "6095840515", "NAME": "COLONIAL FIRE CO", "MCD": "HAMILTON TWP", "COUNTY": "Mercer", "PHONE": "6095865454", "STATE": "NJ", "ADDRESS": "801  KUSER RD", "TYPE": "Emergency", "SUB_TYPE": "Fire"}},{"geometry": {"type": "Point", "coordinates": [-74.72817339950758, 40.255689999102756]}, "type": "Feature", "id": 164, "properties": {"NAME": "COLONIAL LAKE PARK LAWRENCE", "MCD": "LAWRENCE TWP", "COUNTY": "Mercer", "STATE": "NJ", "ADDRESS": "100  BRIDGE DR", "TYPE": "Park", "SUB_TYPE": "Municipal Park"}},{"geometry": {"type": "Point", "coordinates": [-74.67030785003834, 40.361433004064345]}, "type": "Feature", "id": 165, "properties": {"NAME": "COMMUNITY PARK NORTH PRINCETON", "MCD": "PRINCETON TWP", "COUNTY": "Mercer", "STATE": "NJ", "ADDRESS": "55  MOUNTAIN AVE", "TYPE": "Park", "SUB_TYPE": "Municipal Park"}},{"geometry": {"type": "Point", "coordinates": [-74.66775662401812, 40.357748980095]}, "type": "Feature", "id": 166, "properties": {"NAME": "COMMUNITY PARK SOUTH PRINCETON", "MCD": "PRINCETON TWP", "COUNTY": "Mercer", "STATE": "NJ", "ADDRESS": "380  WITHERSPOON ST", "TYPE": "Park", "SUB_TYPE": "Municipal Park"}},{"geometry": {"type": "Point", "coordinates": [-74.7314589593059, 40.228049281672654]}, "type": "Feature", "id": 167, "properties": {"NAME": "CONNECTICUT PARK HAMILTON", "MCD": "HAMILTON TWP", "COUNTY": "Mercer", "STATE": "NJ", "ADDRESS": "250  CONNECTICUT AVE", "TYPE": "Park", "SUB_TYPE": "Municipal Park"}},{"geometry": {"type": "Point", "coordinates": [-74.63621358487359, 40.275567790200064]}, "type": "Feature", "id": 168, "properties": {"NAME": "CONOVER RD ATHLETIC COMPLEX WEST WINDSOR", "MCD": "WEST WINDSOR TWP", "COUNTY": "Mercer", "STATE": "NJ", "ADDRESS": "1  CONOVER RD", "TYPE": "Park", "SUB_TYPE": "Municipal Park"}},{"geometry": {"type": "Point", "coordinates": [-74.71303190980949, 40.255829116284175]}, "type": "Feature", "id": 170, "properties": {"NAME": "CORNELL HEIGHTS PARK HAMILTON", "MCD": "HAMILTON TWP", "COUNTY": "Mercer", "STATE": "NJ", "ADDRESS": "329  AMHERST AVE", "TYPE": "Park", "SUB_TYPE": "Municipal Park"}},{"geometry": {"type": "Point", "coordinates": [-74.72888794073421, 40.22201779757456]}, "type": "Feature", "id": 171, "properties": {"NAME": "DARCY PARK HAMILTON", "MCD": "HAMILTON TWP", "COUNTY": "Mercer", "STATE": "NJ", "ADDRESS": "109  DARCY AVE", "TYPE": "Park", "SUB_TYPE": "Municipal Park"}},{"geometry": {"type": "Point", "coordinates": [-74.52694610050291, 40.26840885244975]}, "type": "Feature", "id": 172, "properties": {"NAME": "DAWES PARK", "MCD": "HIGHTSTOWN BORO", "COUNTY": "Mercer", "STATE": "NJ", "ADDRESS": "266  ACADEMY ST", "TYPE": "Park", "SUB_TYPE": "Municipal Park"}},{"geometry": {"type": "Point", "coordinates": [-74.71034305927431, 40.18734058294924]}, "type": "Feature", "id": 173, "properties": {"FAX": "6098885425", "NAME": "DECOU FD", "MCD": "HAMILTON TWP", "COUNTY": "Mercer", "PHONE": "6098881277", "STATE": "NJ", "ADDRESS": "61   RUSKIN AVE", "TYPE": "Emergency", "SUB_TYPE": "Fire"}},{"geometry": {"type": "Point", "coordinates": [-74.74704601421847, 40.19259013225412]}, "type": "Feature", "id": 174, "properties": {"NAME": "DEUTZVILLE PARK HAMILTON", "MCD": "HAMILTON TWP", "COUNTY": "Mercer", "STATE": "NJ", "ADDRESS": "452  BUNTING AVE", "TYPE": "Park", "SUB_TYPE": "Municipal Park"}},{"geometry": {"type": "Point", "coordinates": [-74.61839074228388, 40.31612329235217]}, "type": "Feature", "id": 175, "properties": {"NAME": "DEY FOREST PARK WEST WINDSOR", "MCD": "WEST WINDSOR TWP", "COUNTY": "Mercer", "STATE": "NJ", "ADDRESS": "5  CARLTON PL", "TYPE": "Park", "SUB_TYPE": "Municipal Park"}},{"geometry": {"type": "Point", "coordinates": [-74.77027284618437, 40.278905065187715]}, "type": "Feature", "id": 176, "properties": {"NAME": "DRAKE FARM PARK EWING", "MCD": "EWING TWP", "COUNTY": "Mercer", "STATE": "NJ", "ADDRESS": "5  FEDERAL CITY RD", "TYPE": "Park", "SUB_TYPE": "Municipal Park"}},{"geometry": {"type": "Point", "coordinates": [-74.61887609212721, 40.17706414303811]}, "type": "Feature", "id": 177, "properties": {"NAME": "DRIALO PARK HAMILTON", "MCD": "HAMILTON TWP", "COUNTY": "Mercer", "STATE": "NJ", "ADDRESS": "55  DRIALO DR", "TYPE": "Park", "SUB_TYPE": "Municipal Park"}},{"geometry": {"type": "Point", "coordinates": [-74.7437568937352, 40.22434143804398]}, "type": "Feature", "id": 178, "properties": {"NAME": "E STATE ST MINI PARK", "MCD": "TRENTON CITY", "COUNTY": "Mercer", "STATE": "NJ", "ADDRESS": "927 E STATE ST", "TYPE": "Park", "SUB_TYPE": "Municipal Park"}},{"geometry": {"type": "Point", "coordinates": [-74.53479085618218, 40.25724663964013]}, "type": "Feature", "id": 179, "properties": {"NAME": "EAST WINDSOR FAIRGROUNDS", "MCD": "EAST WINDSOR TWP", "COUNTY": "Mercer", "PHONE": "6094488510", "STATE": "NJ", "ADDRESS": "99  AIRPORT RD", "TYPE": "Park", "SUB_TYPE": "Municipal Park"}},{"geometry": {"type": "Point", "coordinates": [-74.54796861365975, 40.2716941034585]}, "type": "Feature", "id": 180, "properties": {"FAX": "6094484758", "NAME": "EAST WINDSOR TOWNSHIP POLICE DEPARTMENT", "MCD": "EAST WINDSOR TWP", "COUNTY": "Mercer", "PHONE": "6094485678", "STATE": "NJ", "ADDRESS": "80  ONE MILE RD", "TYPE": "Emergency", "SUB_TYPE": "Police"}},{"geometry": {"type": "Point", "coordinates": [-74.54561952698442, 40.27239263401705]}, "type": "Feature", "id": 181, "properties": {"FAX": "6094488240", "NAME": "EAST WINDSOR VOL FIRE CO 1", "MCD": "EAST WINDSOR TWP", "COUNTY": "Mercer", "PHONE": "6094485487", "STATE": "NJ", "ADDRESS": "51  ONE MILE RD", "TYPE": "Emergency", "SUB_TYPE": "Fire"}},{"geometry": {"type": "Point", "coordinates": [-74.49371360908651, 40.26064064225885]}, "type": "Feature", "id": 182, "properties": {"FAX": "6094431067", "NAME": "EAST WINDSOR VOL FIRE CO 2", "MCD": "EAST WINDSOR TWP", "COUNTY": "Mercer", "PHONE": "6094435130", "STATE": "NJ", "ADDRESS": "69  TWIN RIVERS DR", "TYPE": "Emergency", "SUB_TYPE": "Fire"}},{"geometry": {"type": "Point", "coordinates": [-74.74640486295856, 40.26439592211704]}, "type": "Feature", "id": 183, "properties": {"NAME": "ELDRIDGE PARK LAWRENCE", "MCD": "LAWRENCE TWP", "COUNTY": "Mercer", "STATE": "NJ", "ADDRESS": "49  TULANE AVE", "TYPE": "Park", "SUB_TYPE": "Municipal Park"}},{"geometry": {"type": "Point", "coordinates": [-74.79000204553891, 40.236790091025334]}, "type": "Feature", "id": 184, "properties": {"NAME": "ELLARSLIE MUSEUM", "MCD": "TRENTON CITY", "COUNTY": "Mercer", "PHONE": "(609) 989-3632", "STATE": "NJ", "ADDRESS": "1  THEATRE LN", "TYPE": "Cultural", "SUB_TYPE": "Museum"}},{"geometry": {"type": "Point", "coordinates": [-74.71049678105393, 40.239866596300665]}, "type": "Feature", "id": 185, "properties": {"FAX": "6095871836", "NAME": "ENTERPRISE FD", "MCD": "HAMILTON TWP", "COUNTY": "Mercer", "PHONE": "6095871835", "STATE": "NJ", "ADDRESS": "569  KLOCKNER RD", "TYPE": "Emergency", "SUB_TYPE": "Fire"}},{"geometry": {"type": "Point", "coordinates": [-74.64777192035427, 40.358528498861375]}, "type": "Feature", "id": 186, "properties": {"NAME": "ERDMAN AVE PLAYGROUND", "MCD": "PRINCETON BORO", "COUNTY": "Mercer", "STATE": "NJ", "ADDRESS": "3  ERDMAN AVE", "TYPE": "Park", "SUB_TYPE": "Municipal Park"}},{"geometry": {"type": "Point", "coordinates": [-74.48989727688446, 40.26048966357908]}, "type": "Feature", "id": 187, "properties": {"NAME": "ETRA LAKE PARK", "MCD": "EAST WINDSOR TWP", "COUNTY": "Mercer", "STATE": "NJ", "ADDRESS": "9  DISBROW HILL RD", "TYPE": "Park", "SUB_TYPE": "Municipal Park"}},{"geometry": {"type": "Point", "coordinates": [-74.77447938321765, 40.2592432496575]}, "type": "Feature", "id": 188, "properties": {"NAME": "EWING PARK", "MCD": "EWING TWP", "COUNTY": "Mercer", "STATE": "NJ", "ADDRESS": "105  SOMERSET ST", "TYPE": "Park", "SUB_TYPE": "Municipal Park"}},{"geometry": {"type": "Point", "coordinates": [-74.80242678961227, 40.2761316774511]}, "type": "Feature", "id": 189, "properties": {"NAME": "EWING TOWNSHIP POLICE DEPT", "MCD": "EWING TWP", "COUNTY": "Mercer", "PHONE": "6098821313", "STATE": "NJ", "ADDRESS": "2  JAKE GARZIO DR", "TYPE": "Emergency", "SUB_TYPE": "Police"}},{"geometry": {"type": "Point", "coordinates": [-74.80307790285647, 40.27603242096158]}, "type": "Feature", "id": 190, "properties": {"FAX": "6098832357", "NAME": "EWING TWP EMS (SQUAD 139 EWING)", "MCD": "EWING TWP", "COUNTY": "Mercer", "PHONE": "6095387615", "STATE": "NJ", "ADDRESS": "2  JAKE GARZIO DR", "TYPE": "Emergency", "SUB_TYPE": "EMS"}},{"geometry": {"type": "Point", "coordinates": [-74.73517047378547, 40.21685801572664]}, "type": "Feature", "id": 191, "properties": {"NAME": "FAIRMOUNT PARK", "MCD": "TRENTON CITY", "COUNTY": "Mercer", "STATE": "NJ", "ADDRESS": "901  FAIRMOUNT AVE", "TYPE": "Park", "SUB_TYPE": "Municipal Park"}},{"geometry": {"type": "Point", "coordinates": [-74.72876059660871, 40.2334688715221]}, "type": "Feature", "id": 192, "properties": {"NAME": "FARMINGDALE PARK HAMILTON", "MCD": "HAMILTON TWP", "COUNTY": "Mercer", "STATE": "NJ", "ADDRESS": "1250  NOTTINGHAM WAY", "TYPE": "Park", "SUB_TYPE": "Municipal Park"}},{"geometry": {"type": "Point", "coordinates": [-74.79294654507947, 40.25332345928267]}, "type": "Feature", "id": 193, "properties": {"NAME": "FASOLINO FIELD EWING", "MCD": "EWING TWP", "COUNTY": "Mercer", "STATE": "NJ", "ADDRESS": "12  SARATOGA AVE", "TYPE": "Park", "SUB_TYPE": "Municipal Park"}},{"geometry": {"type": "Point", "coordinates": [-74.75831511817427, 40.2372915542282]}, "type": "Feature", "id": 194, "properties": {"NAME": "FATHER ROCCO PARK", "MCD": "TRENTON CITY", "COUNTY": "Mercer", "STATE": "NJ", "ADDRESS": "1711  CALHOUN ST", "TYPE": "Park", "SUB_TYPE": "Municipal Park"}},{"geometry": {"type": "Point", "coordinates": [-74.76265123204077, 40.211213134233006]}, "type": "Feature", "id": 195, "properties": {"NAME": "FERRY ST PARK", "MCD": "TRENTON CITY", "COUNTY": "Mercer", "STATE": "NJ", "ADDRESS": "240  FERRY ST", "TYPE": "Park", "SUB_TYPE": "Municipal Park"}},{"geometry": {"type": "Point", "coordinates": [-74.77324454443942, 40.221042715997264]}, "type": "Feature", "id": 197, "properties": {"NAME": "STATE OF NJ MUSEUM", "MCD": "TRENTON CITY", "COUNTY": "Mercer", "STATE": "NJ", "ADDRESS": "205 W STATE ST", "TYPE": "Cultural", "SUB_TYPE": "Museum"}},{"geometry": {"type": "Point", "coordinates": [-74.76149485055554, 40.208734404006854]}, "type": "Feature", "id": 198, "properties": {"NAME": "STEAMBOAT ST PARK", "MCD": "TRENTON CITY", "COUNTY": "Mercer", "STATE": "NJ", "ADDRESS": "51  STEAMBOAT ST", "TYPE": "Park", "SUB_TYPE": "Municipal Park"}},{"geometry": {"type": "Point", "coordinates": [-74.71292299174468, 40.275508646574934]}, "type": "Feature", "id": 199, "properties": {"NAME": "STONICKER PARK LAWRENCE", "MCD": "LAWRENCE TWP", "COUNTY": "Mercer", "STATE": "NJ", "ADDRESS": "400  GLENN AVE", "TYPE": "Park", "SUB_TYPE": "Municipal Park"}},{"geometry": {"type": "Point", "coordinates": [-74.75499619464985, 40.240809328424255]}, "type": "Feature", "id": 200, "properties": {"NAME": "STOUT AVE PARK EWING", "MCD": "EWING TWP", "COUNTY": "Mercer", "STATE": "NJ", "ADDRESS": "60  STOUT AVE", "TYPE": "Park", "SUB_TYPE": "Municipal Park"}},{"geometry": {"type": "Point", "coordinates": [-74.67617301013887, 40.19259186018836]}, "type": "Feature", "id": 201, "properties": {"NAME": "SUNNYBRAE PARK HAMILTON", "MCD": "HAMILTON TWP", "COUNTY": "Mercer", "STATE": "NJ", "ADDRESS": "9  PLEASANT DR", "TYPE": "Park", "SUB_TYPE": "Municipal Park"}},{"geometry": {"type": "Point", "coordinates": [-74.64811534611324, 40.23369920257654]}, "type": "Feature", "id": 202, "properties": {"NAME": "SUNSET MANOR PARK HAMILTON", "MCD": "HAMILTON TWP", "COUNTY": "Mercer", "STATE": "NJ", "ADDRESS": "3  SUNSET MANOR PARK LN", "TYPE": "Park", "SUB_TYPE": "Municipal Park"}},{"geometry": {"type": "Point", "coordinates": [-74.67861839613313, 40.1826036546802]}, "type": "Feature", "id": 203, "properties": {"NAME": "SWITLIK PARK", "MCD": "HAMILTON TWP", "COUNTY": "Mercer", "STATE": "NJ", "ADDRESS": "99  JOE DIMAGGIO DR", "TYPE": "Park", "SUB_TYPE": "Municipal Park"}},{"geometry": {"type": "Point", "coordinates": [-74.59610712998875, 40.239874962604155]}, "type": "Feature", "id": 204, "properties": {"NAME": "TANTUM PARK", "MCD": "WASHINGTON TWP", "COUNTY": "Mercer", "STATE": "NJ", "ADDRESS": "299  MEADOWBROOK RD", "TYPE": "Park", "SUB_TYPE": "Municipal Park"}},{"geometry": {"type": "Point", "coordinates": [-74.7915722598877, 40.23286187724819]}, "type": "Feature", "id": 205, "properties": {"NAME": "TENNIS COURTS", "MCD": "TRENTON CITY", "COUNTY": "Mercer", "STATE": "NJ", "ADDRESS": "1000 W STATE ST", "TYPE": "Park", "SUB_TYPE": "Municipal Park"}},{"geometry": {"type": "Point", "coordinates": [-74.74664369238121, 40.200513743502924]}, "type": "Feature", "id": 206, "properties": {"NAME": "TENNIS COURTS CITY OF TRENTON", "MCD": "TRENTON CITY", "COUNTY": "Mercer", "STATE": "NJ", "ADDRESS": "1918  CHESTNUT AVE", "TYPE": "Park", "SUB_TYPE": "Municipal Park"}},{"geometry": {"type": "Point", "coordinates": [-74.76984334108346, 40.22718742167221]}, "type": "Feature", "id": 207, "properties": {"NAME": "TFD Engine/Ladder 1", "MCD": "TRENTON CITY", "COUNTY": "Mercer", "STATE": "NJ", "ADDRESS": "460  CALHOUN ST", "TYPE": "Emergency", "SUB_TYPE": "Fire"}},{"geometry": {"type": "Point", "coordinates": [-74.7606018786626, 40.224104398693946]}, "type": "Feature", "id": 208, "properties": {"NAME": "Trenton Fire Headquaters (Engine 10, Ladder 4, Rescue 1)", "MCD": "TRENTON CITY", "COUNTY": "Mercer", "STATE": "NJ", "ADDRESS": "244  PERRY ST", "TYPE": "Emergency", "SUB_TYPE": "Fire"}},{"geometry": {"type": "Point", "coordinates": [-74.74497979708876, 40.23187549447007]}, "type": "Feature", "id": 209, "properties": {"NAME": "TFD ENGINE 6", "MCD": "TRENTON CITY", "COUNTY": "Mercer", "PHONE": "6099894047", "STATE": "NJ", "ADDRESS": "561 N CLINTON AVE", "TYPE": "Emergency", "SUB_TYPE": "Fire"}},{"geometry": {"type": "Point", "coordinates": [-74.74458345771603, 40.2168334647193]}, "type": "Feature", "id": 210, "properties": {"NAME": "TFD ENGINE 7", "MCD": "TRENTON CITY", "COUNTY": "Mercer", "STATE": "NJ", "ADDRESS": "500  HAMILTON AVE", "TYPE": "Emergency", "SUB_TYPE": "Fire"}},{"geometry": {"type": "Point", "coordinates": [-74.779642244638, 40.23409816666407]}, "type": "Feature", "id": 211, "properties": {"NAME": "TFD ENGINE 8", "MCD": "TRENTON CITY", "COUNTY": "Mercer", "STATE": "NJ", "ADDRESS": "698  STUYVESANT AVE", "TYPE": "Emergency", "SUB_TYPE": "Fire"}},{"geometry": {"type": "Point", "coordinates": [-74.79850705225327, 40.23638074354639]}, "type": "Feature", "id": 212, "properties": {"NAME": "TFD ENGINE 9", "MCD": "TRENTON CITY", "COUNTY": "Mercer", "STATE": "NJ", "ADDRESS": "1464 W STATE ST", "TYPE": "Emergency", "SUB_TYPE": "Fire"}},{"geometry": {"type": "Point", "coordinates": [-74.752232591005, 40.2081033589104]}, "type": "Feature", "id": 213, "properties": {"NAME": "TFD LADDER 2, TFD ENGINE 3", "MCD": "TRENTON CITY", "COUNTY": "Mercer", "STATE": "NJ", "ADDRESS": "720 South Broad St.", "TYPE": "Emergency", "SUB_TYPE": "Fire"}},{"geometry": {"type": "Point", "coordinates": [-74.65370551401743, 40.350969885391194]}, "type": "Feature", "id": 214, "properties": {"NAME": "THE AMERICAN SCHOOL OF CLASSICAL STUDIES AT ATHENS", "MCD": "PRINCETON BORO", "COUNTY": "Mercer", "PHONE": "6096830800", "STATE": "NJ", "ADDRESS": "6  CHARLTON ST", "TYPE": "Cultural", "SUB_TYPE": "Arts"}},{"geometry": {"type": "Point", "coordinates": [-74.66127881356344, 40.35261533762644]}, "type": "Feature", "id": 215, "properties": {"NAME": "THE ARTS COUNCIL OF PRINCETON", "MCD": "PRINCETON BORO", "COUNTY": "Mercer", "PHONE": "6099248777", "STATE": "NJ", "ADDRESS": "102  WITHERSPOON ST", "TYPE": "Cultural", "SUB_TYPE": "Arts"}},{"geometry": {"type": "Point", "coordinates": [-74.78113936825771, 40.26345819001822]}, "type": "Feature", "id": 216, "properties": {"FAX": "6096375195", "NAME": "THE COLLEGE OF NEW JERSEY PD", "MCD": "EWING TWP", "COUNTY": "Mercer", "PHONE": "6097712167", "STATE": "NJ", "ADDRESS": "1950   PENNINGTON RD", "TYPE": "Emergency", "SUB_TYPE": "Police"}},{"geometry": {"type": "Point", "coordinates": [-74.77767301165387, 40.26861608084447]}, "type": "Feature", "id": 217, "properties": {"NAME": "THE COLLEGE OF NEW JERSEY", "MCD": "EWING TWP", "COUNTY": "Mercer", "PHONE": "6097711855", "STATE": "NJ", "ADDRESS": "2000  PENNINGTON RD", "TYPE": "College", "SUB_TYPE": "College"}},{"geometry": {"type": "Point", "coordinates": [-74.76391548530236, 40.22146531610375]}, "type": "Feature", "id": 218, "properties": {"NAME": "MERCER COUNTY COMMUNITY COLLEGE KEARNEY CAMPUS", "MCD": "TRENTON CITY", "COUNTY": "Mercer", "STATE": "NJ", "ADDRESS": "North Broad & Academy Sts.", "TYPE": "College", "SUB_TYPE": "College"}},{"geometry": {"type": "Point", "coordinates": [-74.76850553813178, 40.220399939940755]}, "type": "Feature", "id": 219, "properties": {"NAME": "THOMAS EDISON STATE COLLEGE", "MCD": "TRENTON CITY", "COUNTY": "Mercer", "PHONE": "(888) 442-8372", "STATE": "NJ", "ADDRESS": "101 W STATE ST", "TYPE": "College", "SUB_TYPE": "College"}},{"geometry": {"type": "Point", "coordinates": [-74.65299963710535, 40.35638655303343]}, "type": "Feature", "id": 220, "properties": {"NAME": "WESTMINSTER CHOIR COLLEGE OF RIDER UNIVERISTY", "MCD": "PRINCETON BORO", "COUNTY": "Mercer", "STATE": "NJ", "TYPE": "College", "SUB_TYPE": "College"}},{"geometry": {"type": "Point", "coordinates": [-74.75366280975776, 40.221520473442396]}, "type": "Feature", "id": 221, "properties": {"NAME": "TRENTON CONSERVATORY OF MUSIC", "MCD": "TRENTON CITY", "COUNTY": "Mercer", "STATE": "NJ", "ADDRESS": "540 E STATE ST", "TYPE": "Cultural", "SUB_TYPE": "Arts"}},{"geometry": {"type": "Point", "coordinates": [-74.81073000285296, 40.24648413910307]}, "type": "Feature", "id": 222, "properties": {"NAME": "TRENTON COUNTRY CLUB", "MCD": "EWING TWP", "COUNTY": "Mercer", "PHONE": "6098833800", "STATE": "NJ", "ADDRESS": "201   SULLIVAN WAY", "TYPE": "Park", "SUB_TYPE": "Municipal Park"}},{"geometry": {"type": "Point", "coordinates": [-74.7921913322777, 40.32912520204246]}, "type": "Feature", "id": 223, "properties": {"FAX": "609-723-29", "NAME": "Pennington Public Library", "MCD": "Pennington Boro", "COUNTY": "Mercer", "PHONE": "609-737-0404", "STATE": "NJ", "ADDRESS": "30 N Main St", "TYPE": "Library", "SUB_TYPE": "Library"}},{"geometry": {"type": "Point", "coordinates": [-74.66034558269817, 40.351768645428784]}, "type": "Feature", "id": 224, "properties": {"CITY": "Princeton", "NAME": "Princeton Public Library", "ZIP": "08542", "MCD": "Princeton Borough", "COUNTY": "Mercer", "PHONE": "6099249529", "STATE": "NJ", "ADDRESS": "65 Witherspoon Street", "TYPE": "Library", "SUB_TYPE": "Library"}},{"geometry": {"type": "Point", "coordinates": [-74.66639910279011, 40.34565121191287]}, "type": "Feature", "id": 225, "properties": {"CITY": "Princeton", "NAME": "Speer Library", "ZIP": "08540", "MCD": "Princeton Borough", "COUNTY": "Mercer", "PHONE": "(609) 497-7940", "STATE": "NJ", "ADDRESS": "Mercer Street & Library Place", "TYPE": "Library", "SUB_TYPE": "Library"}},{"geometry": {"type": "Point", "coordinates": [-74.69570467732186, 40.21133257380611]}, "type": "Feature", "id": 226, "properties": {"CITY": "Hamilton", "NAME": "Hamilton Twp Public Library", "ZIP": "08619", "MCD": "Hamilton Township", "COUNTY": "Mercer", "PHONE": "(609) 581-4060", "STATE": "NJ", "ADDRESS": "1 Justice Samuel Alito Jr Way", "TYPE": "Library", "SUB_TYPE": "Library"}},{"geometry": {"type": "Point", "coordinates": [-74.65725537314117, 40.349516516004755]}, "type": "Feature", "id": 227, "properties": {"CITY": "Princeton", "NAME": "Firestone Library - Princeton University", "ZIP": "08540", "MCD": "Princeton Borough", "COUNTY": "Mercer", "PHONE": "6092583000", "STATE": "NJ", "ADDRESS": "Wahington & Nassau Streets", "TYPE": "Library", "SUB_TYPE": "Library"}},{"geometry": {"type": "Point", "coordinates": [-74.65228548624495, 40.350361097173106]}, "type": "Feature", "id": 228, "properties": {"CITY": "Princeton", "NAME": "Mudd Library - Princeton University", "ZIP": "08540", "MCD": "Princeton Borough", "COUNTY": "Mercer", "PHONE": "6092583000", "STATE": "NJ", "ADDRESS": "65 Olden Street", "TYPE": "Library", "SUB_TYPE": "Library"}},{"geometry": {"type": "Point", "coordinates": [-74.77238170494662, 40.220930801306324]}, "type": "Feature", "id": 229, "properties": {"CITY": "Trenton", "NAME": "New Jersey State Library", "ZIP": "08625", "MCD": "Trenton", "COUNTY": "Mercer", "PHONE": "(609) 292-6220", "STATE": "NJ", "ADDRESS": "185 West State Street", "TYPE": "Library", "SUB_TYPE": "Library"}},{"geometry": {"type": "Point", "coordinates": [-74.76335448140895, 40.22229757061909]}, "type": "Feature", "id": 230, "properties": {"CITY": "Trenton", "NAME": "Trenton Public Library - Main", "ZIP": "08068", "MCD": "Treton", "COUNTY": "Mercer", "PHONE": "609-392-7188", "STATE": "NJ", "ADDRESS": "120 Academy Street", "TYPE": "Library", "SUB_TYPE": "Library"}},{"geometry": {"type": "Point", "coordinates": [-74.73795666381649, 40.22322462723701]}, "type": "Feature", "id": 231, "properties": {"CITY": "Trenton", "FAX": "(609) 695-0746", "NAME": "Trenton Public Library - Briggs", "ZIP": "08608", "MCD": "Trenton", "COUNTY": "Mercer", "PHONE": "(609) 392-7856", "STATE": "NJ", "ADDRESS": "1115 Greenwood Avenue", "TYPE": "Library", "SUB_TYPE": "Library"}},{"geometry": {"type": "Point", "coordinates": [-74.78253045517587, 40.230516093566216]}, "type": "Feature", "id": 232, "properties": {"CITY": "Trenton", "FAX": "609-695-4979", "NAME": "Trenton Public Library - Cadwalader", "ZIP": "08618", "MCD": "Trenton", "COUNTY": "Mercer", "PHONE": "609-392-7886", "STATE": "NJ", "ADDRESS": "200 North Hermitage Avenue", "TYPE": "Library", "SUB_TYPE": "Library"}},{"geometry": {"type": "Point", "coordinates": [-74.74206759992799, 40.23311067805315]}, "type": "Feature", "id": 233, "properties": {"CITY": "Trenton", "FAX": "(609) 695-4048", "NAME": "Trenton Public Library - East Trenton", "ZIP": "08638", "MCD": "Trenton", "COUNTY": "Mercer", "PHONE": "(609) 392-7866", "STATE": "NJ", "ADDRESS": "701 North Clinton Avenue", "TYPE": "Library", "SUB_TYPE": "Library"}},{"geometry": {"type": "Point", "coordinates": [-74.74797886190271, 40.20596202635287]}, "type": "Feature", "id": 234, "properties": {"CITY": "Trenton", "FAX": "609-695-3560", "NAME": "Trenton Public Library - Skelton Library", "ZIP": "08611", "MCD": "Trenton", "COUNTY": "Mercer", "PHONE": "609-392-7876", "STATE": "NJ", "ADDRESS": "943 South Broad Street", "TYPE": "Library", "SUB_TYPE": "Library"}},{"geometry": {"type": "Point", "coordinates": [-74.62079156335471, 40.21442801707768]}, "type": "Feature", "id": 235, "properties": {"CITY": "Robbinsville", "NAME": "Mercer County Library - Washington Branch", "ZIP": "08691", "MCD": "Washington Township", "COUNTY": "Mercer", "PHONE": "6092592150", "STATE": "NJ", "ADDRESS": "42 Allentown-Robbinsville Road", "TYPE": "Library", "SUB_TYPE": "Library"}},{"geometry": {"type": "Point", "coordinates": [-74.52154716772858, 40.27019856779354]}, "type": "Feature", "id": 236, "properties": {"CITY": "Hightstown", "NAME": "Mercer County Library - Hightstown Memorial Branch", "ZIP": "08520", "MCD": "Hightstown Borough", "COUNTY": "Mercer", "PHONE": "6094481474", "STATE": "NJ", "ADDRESS": "114 Franklin Street", "TYPE": "Library", "SUB_TYPE": "Library"}},{"geometry": {"type": "Point", "coordinates": [-74.77030769426521, 40.26497191570377]}, "type": "Feature", "id": 237, "properties": {"CITY": "Trenton", "NAME": "Mercer County Library - Hollowbrook Branch", "ZIP": "08638", "MCD": "Ewing Township", "COUNTY": "Mercer", "PHONE": "6098839626", "STATE": "NJ", "ADDRESS": "320 Hollowbrook Drive", "TYPE": "Library", "SUB_TYPE": "Library"}},{"geometry": {"type": "Point", "coordinates": [-74.491175039211, 40.26689031662415]}, "type": "Feature", "id": 238, "properties": {"CITY": "East Windsor", "NAME": "Mercer County Library - Twin Rivers Branch", "ZIP": "08520", "MCD": "East Windsor Township", "COUNTY": "Mercer", "PHONE": "6094431880", "STATE": "NJ", "ADDRESS": "276 Abbington Drive", "TYPE": "Library", "SUB_TYPE": "Library"}},{"geometry": {"type": "Point", "coordinates": [-74.55430545214051, 40.2631676017394]}, "type": "Feature", "id": 239, "properties": {"CITY": "East Windsor", "NAME": "Mercer County Library - Hickory Corner Branch", "ZIP": "08520", "MCD": "East Windsor Township", "COUNTY": "Mercer", "PHONE": "6094481330", "STATE": "NJ", "ADDRESS": "138 Hickory Corner Road", "TYPE": "Library", "SUB_TYPE": "Library"}},{"geometry": {"type": "Point", "coordinates": [-74.63377866040805, 40.3071371760848]}, "type": "Feature", "id": 240, "properties": {"CITY": "Princeton Junction", "NAME": "Mercer County Library - West Windsor Branch", "ZIP": "08550", "MCD": "West Windsor Township", "COUNTY": "Mercer", "PHONE": "6097990462", "STATE": "NJ", "ADDRESS": "333 North Post Road", "TYPE": "Library", "SUB_TYPE": "Library"}},{"geometry": {"type": "Point", "coordinates": [-74.80138462557244, 40.26790943302687]}, "type": "Feature", "id": 241, "properties": {"CITY": "Ewing", "NAME": "Mercer County Library - Ewing Branch", "ZIP": "08628", "MCD": "Ewing Township", "COUNTY": "Mercer", "PHONE": "6098823130", "STATE": "NJ", "ADDRESS": "61 Scotch Road", "TYPE": "Library", "SUB_TYPE": "Library"}},{"geometry": {"type": "Point", "coordinates": [-74.65175395731545, 40.25463675461432]}, "type": "Feature", "id": 242, "properties": {"NAME": "Mercer County Community College", "ZIP": "08690", "MCD": "West Windsor Township", "COUNTY": "Mercer", "PHONE": "(609) 586-4800", "STATE": "NJ", "ADDRESS": "Old Trenton Road", "TYPE": "Library", "SUB_TYPE": "Library"}},{"geometry": {"type": "Point", "coordinates": [-74.71884667682174, 40.26624538396691]}, "type": "Feature", "id": 243, "properties": {"CITY": "Trenton", "NAME": "Mercer County Library - Lawrence Headquarters Branch", "ZIP": "08648", "MCD": "Lawrence Township", "COUNTY": "Mercer", "PHONE": "6098829246", "STATE": "NJ", "ADDRESS": "2751 Brunswick Pike", "TYPE": "Library", "SUB_TYPE": "Library"}},{"geometry": {"type": "Point", "coordinates": [-74.80170245847198, 40.32736829670123]}, "type": "Feature", "id": 244, "properties": {"CITY": "Pennington", "NAME": "Mercer County Library - Hopewell Branch", "ZIP": "08534", "MCD": "Hopewell Township", "COUNTY": "Mercer", "PHONE": "6097372610", "STATE": "NJ", "ADDRESS": "245 Pennington-Titusville Rd", "TYPE": "Library", "SUB_TYPE": "Library"}},{"geometry": {"type": "Point", "coordinates": [-74.75841660274789, 40.19859902098504]}, "type": "Feature", "id": 245, "properties": {"WEBSITE": "http://www.state.nj.us/counties/mercer/commissions/park/millyard.html", "CITY": "Trenton", "NAME": "South River Walk Park", "COUNTY": "Mercer", "STATE": "NJ", "ADDRESS": "above the Route 129 tunnel", "TYPE": "Park", "SUB_TYPE": "County Park"}},{"geometry": {"type": "Point", "coordinates": [-74.75284437040649, 40.21026870824907]}, "type": "Feature", "id": 246, "properties": {"WEBSITE": "http://www.state.nj.us/counties/mercer/commissions/park/millyard.html", "STATE": "NJ", "TYPE": "Park", "NAME": "Millyard Park", "SUB_TYPE": "County Park"}},{"geometry": {"type": "Point", "coordinates": [-74.54044925051416, 40.27465866046761]}, "type": "Feature", "id": 247, "properties": {"CITY": "East Windsor", "NAME": "East Windsor Village", "ZIP": "08520", "COUNTY": "Mercer", "STATE": "NJ", "ADDRESS": "70 Princeton-Hightstown Road", "TYPE": "Shopping Center", "SUB_TYPE": "Community"}},{"geometry": {"type": "Point", "coordinates": [-74.67688058604197, 40.30307834577854]}, "type": "Feature", "id": 248, "properties": {"CITY": "Princeton", "NAME": "Nassau Park Pavilion", "ZIP": "08540", "COUNTY": "Mercer", "STATE": "NJ", "ADDRESS": "251 Nassau Park Boulevard", "TYPE": "Shopping Center", "SUB_TYPE": "Regional"}},{"geometry": {"type": "Point", "coordinates": [-74.65106213840707, 40.36364372395334]}, "type": "Feature", "id": 249, "properties": {"CITY": "Princeton", "NAME": "Princeton Shopping Center", "ZIP": "08540", "COUNTY": "Mercer", "PHONE": "609-921-6234", "STATE": "NJ", "ADDRESS": "301 North Harrison Street", "TYPE": "Shopping Center", "SUB_TYPE": "Community"}},{"geometry": {"type": "Point", "coordinates": [-74.63579951806025, 40.22168296711985]}, "type": "Feature", "id": 250, "properties": {"CITY": "Robbinsville", "NAME": "The Shoppes at Foxmoor", "ZIP": "08691", "COUNTY": "Mercer", "STATE": "NJ", "ADDRESS": "1095 Washington Boulevard", "TYPE": "Shopping Center", "SUB_TYPE": "Community"}},{"geometry": {"type": "Point", "coordinates": [-74.8060722816787, 40.267129091087675]}, "type": "Feature", "id": 251, "properties": {"CITY": "Trenton", "NAME": "Birmingham Plaza", "ZIP": "08628", "COUNTY": "Mercer", "STATE": "NJ", "ADDRESS": "1400 Parkway Avenue", "TYPE": "Shopping Center", "SUB_TYPE": "Neighborhood"}},{"geometry": {"type": "Point", "coordinates": [-74.76505861084141, 40.220394999821956]}, "type": "Feature", "id": 252, "properties": {"CITY": "Trenton", "NAME": "Capital Center", "ZIP": "08608", "COUNTY": "Mercer", "STATE": "NJ", "ADDRESS": "50 East State Street", "TYPE": "Shopping Center", "SUB_TYPE": "Neighborhood"}},{"geometry": {"type": "Point", "coordinates": [-74.72135711294797, 40.191790853785]}, "type": "Feature", "id": 253, "properties": {"CITY": "Trenton", "NAME": "Independence Plaza", "ZIP": "08610", "COUNTY": "Mercer", "PHONE": "609-888-0855", "STATE": "NJ", "ADDRESS": "2465 Broad Street", "TYPE": "Shopping Center", "SUB_TYPE": "Community"}},{"geometry": {"type": "Point", "coordinates": [-74.79167866093806, 40.25573901208541]}, "type": "Feature", "id": 254, "properties": {"CITY": "Trenton", "NAME": "Mercer County Park", "ZIP": "08618", "COUNTY": "Mercer", "PHONE": "856-798-8700", "STATE": "NJ", "ADDRESS": "940 Parkway Avenue", "TYPE": "Shopping Center", "SUB_TYPE": "Regional"}},{"geometry": {"type": "Point", "coordinates": [-74.75469891238653, 40.210705741220174]}, "type": "Feature", "id": 255, "properties": {"CITY": "Trenton", "NAME": "Roebling Market", "ZIP": "08611", "COUNTY": "Mercer", "PHONE": "609-393-2700", "STATE": "NJ", "ADDRESS": "635 South Clinton Avenue", "TYPE": "Shopping Center", "SUB_TYPE": "Community"}},{"geometry": {"type": "Point", "coordinates": [-74.71552505970264, 40.2344003483929]}, "type": "Feature", "id": 256, "properties": {"CITY": "Trenton", "NAME": "Suburban Plaza", "ZIP": "08619", "COUNTY": "Mercer", "PHONE": "609-587-1919", "STATE": "NJ", "ADDRESS": "1700 Nottingham Way", "TYPE": "Shopping Center", "SUB_TYPE": "Community"}},{"geometry": {"type": "Point", "coordinates": [-74.67788001289072, 40.18527567043446]}, "type": "Feature", "id": 257, "properties": {"CITY": "Yardville", "NAME": "Dover Park Plaza", "ZIP": "08620", "COUNTY": "Mercer", "STATE": "NJ", "ADDRESS": "1 Sunnybrae Boulevard", "TYPE": "Shopping Center", "SUB_TYPE": "Neighborhood"}},{"geometry": {"type": "Point", "coordinates": [-74.53054370457546, 40.27892141184741]}, "type": "Feature", "id": 258, "properties": {"CITY": "East Windsor", "NAME": "Towne Center Plaza", "ZIP": "08520", "COUNTY": "Mercer", "STATE": "NJ", "ADDRESS": "319 Route 130", "TYPE": "Shopping Center", "SUB_TYPE": "Community"}},{"geometry": {"type": "Point", "coordinates": [-74.53656041264924, 40.2765193888745]}, "type": "Feature", "id": 259, "properties": {"CITY": "East Windsor", "NAME": "East Windsor Town Center", "ZIP": "08520", "COUNTY": "Mercer", "STATE": "NJ", "ADDRESS": "370 Route 130 South", "TYPE": "Shopping Center", "SUB_TYPE": "Community"}},{"geometry": {"type": "Point", "coordinates": [-74.54254063529459, 40.276998049750134]}, "type": "Feature", "id": 260, "properties": {"CITY": "East Windsor", "NAME": "East Windsor Commons", "ZIP": "08520", "COUNTY": "Mercer", "STATE": "NJ", "ADDRESS": "319 Route 130 East", "TYPE": "Shopping Center", "SUB_TYPE": "Community"}},{"geometry": {"type": "Point", "coordinates": [-74.68870781167038, 40.24858016878138]}, "type": "Feature", "id": 261, "properties": {"CITY": "Hamilton", "NAME": "Clover Square", "ZIP": "08619", "COUNTY": "Mercer", "STATE": "NJ", "TYPE": "Shopping Center", "SUB_TYPE": "Community"}},{"geometry": {"type": "Point", "coordinates": [-74.69419047260772, 40.20580593269948]}, "type": "Feature", "id": 262, "properties": {"CITY": "Hamilton", "NAME": "Hamilton Plaza", "ZIP": "08610", "COUNTY": "Mercer", "STATE": "NJ", "ADDRESS": "1061 Whiehorse Road", "TYPE": "Shopping Center", "SUB_TYPE": "Community"}},{"geometry": {"type": "Point", "coordinates": [-74.66334313436265, 40.22669503860025]}, "type": "Feature", "id": 263, "properties": {"CITY": "Hamilton", "NAME": "Hamilton Square", "ZIP": "08690", "COUNTY": "Mercer", "STATE": "NJ", "ADDRESS": "12115 Route 33", "TYPE": "Shopping Center", "SUB_TYPE": "Community"}},{"geometry": {"type": "Point", "coordinates": [-74.66765679637375, 40.30871129869437]}, "type": "Feature", "id": 264, "properties": {"CITY": "Princeton", "NAME": "Shops at Windsor Green", "ZIP": "08540", "COUNTY": "Mercer", "STATE": "NJ", "ADDRESS": "3495 Route 1", "TYPE": "Shopping Center", "SUB_TYPE": "Community"}},{"geometry": {"type": "Point", "coordinates": [-74.6854825055087, 40.234175375661195]}, "type": "Feature", "id": 265, "properties": {"CITY": "Trenton", "NAME": "Mercerville Shopping Center", "ZIP": "08619", "COUNTY": "Mercer", "STATE": "NJ", "ADDRESS": "318 Route 33", "TYPE": "Shopping Center", "SUB_TYPE": "Neighborhood"}},{"geometry": {"type": "Point", "coordinates": [-74.66989498474229, 40.228464757261854]}, "type": "Feature", "id": 266, "properties": {"CITY": "Hamilton", "NAME": "Hamilton Shopping Center", "ZIP": "08690", "COUNTY": "Mercer", "STATE": "NJ", "ADDRESS": "957 Route 33", "TYPE": "Shopping Center", "SUB_TYPE": "Neighborhood"}},{"geometry": {"type": "Point", "coordinates": [-74.79269252507198, 40.25633395027073]}, "type": "Feature", "id": 267, "properties": {"CITY": "Trenton", "NAME": "Ewing Square", "ZIP": "08618", "COUNTY": "Mercer", "STATE": "NJ", "ADDRESS": "950-972 Parkway Avenue", "TYPE": "Shopping Center", "SUB_TYPE": "Neighborhood"}},{"geometry": {"type": "Point", "coordinates": [-74.69650211451507, 40.20701190404041]}, "type": "Feature", "id": 268, "properties": {"CITY": "Hamilton Square", "NAME": "Kuser Shopping Center", "ZIP": "08690", "COUNTY": "Mercer", "STATE": "NJ", "ADDRESS": "1080 Whitehorse Mercerville Road", "TYPE": "Shopping Center", "SUB_TYPE": "Neighborhood"}},{"geometry": {"type": "Point", "coordinates": [-74.79780760094121, 40.32641169748633]}, "type": "Feature", "id": 269, "properties": {"CITY": "Pennington", "NAME": "Pennington Shopping Center", "ZIP": "08534", "COUNTY": "Mercer", "STATE": "NJ", "ADDRESS": "25 Route 31 South", "TYPE": "Shopping Center", "SUB_TYPE": "Neighborhood"}},{"geometry": {"type": "Point", "coordinates": [-74.6611431633325, 40.31501303213923]}, "type": "Feature", "id": 270, "properties": {"CITY": "Princeton", "NAME": "Princeton Marketfair", "ZIP": "08540", "COUNTY": "Mercer", "STATE": "NJ", "ADDRESS": "3535 Route 1", "TYPE": "Shopping Center", "SUB_TYPE": "Community"}},{"geometry": {"type": "Point", "coordinates": [-74.80281179947967, 40.26549480582581]}, "type": "Feature", "id": 271, "properties": {"CITY": "Ewing", "NAME": "Suburban Square", "ZIP": "08620", "COUNTY": "Mercer", "STATE": "NJ", "ADDRESS": "25 Scotch Road", "TYPE": "Shopping Center", "SUB_TYPE": "Community"}},{"geometry": {"type": "Point", "coordinates": [-74.729578949886, 40.258840487271115]}, "type": "Feature", "id": 272, "properties": {"CITY": "Lawrenceville", "NAME": "Lawrence Center", "ZIP": "08648", "COUNTY": "Mercer", "STATE": "NJ", "ADDRESS": "2495 Route 1", "TYPE": "Shopping Center", "SUB_TYPE": "Regional"}},{"geometry": {"type": "Point", "coordinates": [-74.68368393552404, 40.29781977805827]}, "type": "Feature", "id": 273, "properties": {"CITY": "Lawrencevill", "NAME": "Mercer Mall", "ZIP": "08648", "COUNTY": "Mercer", "STATE": "NJ", "ADDRESS": "3371 Route 1", "TYPE": "Shopping Center", "SUB_TYPE": "Regional"}},{"geometry": {"type": "Point", "coordinates": [-74.68208416760469, 40.290562308007985]}, "type": "Feature", "id": 274, "properties": {"CITY": "Lawrenceville", "NAME": "Quaker Bridge Mall", "ZIP": "08648", "COUNTY": "Mercer", "STATE": "NJ", "ADDRESS": "150 Quaker Bridge Mall Road", "TYPE": "Shopping Center", "SUB_TYPE": "Super Regional"}},{"geometry": {"type": "Point", "coordinates": [-74.54038414898586, 40.27261798442376]}, "type": "Feature", "id": 275, "properties": {"CITY": "East Windsor", "NAME": "Windsor Heights Shopping Center", "ZIP": "08520", "COUNTY": "Mercer", "STATE": "NJ", "ADDRESS": "440 Route 130 South", "TYPE": "Shopping Center", "SUB_TYPE": "Community"}},{"geometry": {"type": "Point", "coordinates": [-74.68856516809385, 40.22255900420378]}, "type": "Feature", "id": 276, "properties": {"CITY": "Hamilton", "NAME": "Whitehorse Plaza Shopping Center", "ZIP": "08619", "COUNTY": "Mercer", "STATE": "NJ", "ADDRESS": "1750 Whitehorse Mercerville Road", "TYPE": "Shopping Center", "SUB_TYPE": "Community"}},{"geometry": {"type": "Point", "coordinates": [-74.64068696082117, 40.194803853526565]}, "type": "Feature", "id": 277, "properties": {"CITY": "Hamilton", "NAME": "Hamilton Marketplace", "ZIP": "08610", "COUNTY": "Mercer", "STATE": "NJ", "ADDRESS": "1000 Marketplace Boulevar", "TYPE": "Shopping Center", "SUB_TYPE": "Super Regional"}},{"geometry": {"type": "Point", "coordinates": [-74.75273600433628, 40.24236402634968]}, "type": "Feature", "id": 278, "properties": {"CITY": "Ewing", "NAME": "Capitol Plaza", "ZIP": "08638", "COUNTY": "Mercer", "STATE": "NJ", "TYPE": "Shopping Center", "SUB_TYPE": "Regional"}},{"geometry": {"type": "Point", "coordinates": [-74.62091855379217, 40.31316484752934]}, "type": "Feature", "id": 279, "properties": {"CITY": "Princeton", "NAME": "Windsor Plaza", "ZIP": "08540", "COUNTY": "Mercer", "STATE": "NJ", "ADDRESS": "64 Hightstown Road", "TYPE": "Shopping Center", "SUB_TYPE": "Neighborhood"}},{"geometry": {"type": "Point", "coordinates": [-74.56993813035963, 40.28046586710671]}, "type": "Feature", "id": 280, "properties": {"CITY": "Windsor", "NAME": "Princeton Arms Shopping Center", "ZIP": "08561", "COUNTY": "Mercer", "STATE": "NJ", "TYPE": "Shopping Center", "SUB_TYPE": "Neighborhood"}},{"geometry": {"type": "Point", "coordinates": [-74.53809774982473, 40.27384446310527]}, "type": "Feature", "id": 281, "properties": {"CITY": "East Windsor", "NAME": "Image Center", "ZIP": "08520", "COUNTY": "Mercer", "STATE": "NJ", "TYPE": "Shopping Center", "SUB_TYPE": "Neighborhood"}},{"geometry": {"type": "Point", "coordinates": [-74.78835608996116, 40.25272836000259]}, "type": "Feature", "id": 282, "properties": {"CITY": "Ewing", "NAME": "Ewing Plaza", "ZIP": "08618", "COUNTY": "Mercer", "STATE": "NJ", "TYPE": "Shopping Center", "SUB_TYPE": "Neighborhood"}},{"geometry": {"type": "Point", "coordinates": [-74.67038003992262, 40.22977166905719]}, "type": "Feature", "id": 283, "properties": {"CITY": "Hamilton", "NAME": "Century Plaza", "ZIP": "08690", "COUNTY": "Mercer", "STATE": "NJ", "ADDRESS": "950 Route 33", "TYPE": "Shopping Center", "SUB_TYPE": "Neighborhood"}},{"geometry": {"type": "Point", "coordinates": [-74.64603482402983, 40.22370278120383]}, "type": "Feature", "id": 284, "properties": {"CITY": "Hamilton Square", "NAME": "Forest Glen Shopping Center", "ZIP": "08690", "COUNTY": "Mercer", "STATE": "NJ", "TYPE": "Shopping Center", "SUB_TYPE": "Neighborhood"}},{"geometry": {"type": "Point", "coordinates": [-74.75172808303547, 40.19903672223763]}, "type": "Feature", "id": 285, "properties": {"CITY": "Trenton", "NAME": "Lalor Plaza", "ZIP": "08611", "COUNTY": "Mercer", "STATE": "NJ", "TYPE": "Shopping Center", "SUB_TYPE": "Neighborhood"}},{"geometry": {"type": "Point", "coordinates": [-74.62622612326828, 40.211190503656184]}, "type": "Feature", "id": 286, "properties": {"CITY": "Robbinsville", "NAME": "Washington Park", "ZIP": "08691", "COUNTY": "Mercer", "STATE": "NJ", "ADDRESS": "1100 Route 130", "TYPE": "Shopping Center", "SUB_TYPE": "Neighborhood"}},{"geometry": {"type": "Point", "coordinates": [-74.76664609701143, 40.24739190581734]}, "type": "Feature", "id": 287, "properties": {"CITY": "Trenton", "NAME": "Ewing Center", "ZIP": "08638", "COUNTY": "Mercer", "STATE": "NJ", "ADDRESS": "1750 North Olden Avenue", "TYPE": "Shopping Center", "SUB_TYPE": "Neighborhood"}},{"geometry": {"type": "Point", "coordinates": [-74.70651560744378, 40.322067050400165]}, "type": "Feature", "id": 288, "properties": {"NAME": "Bristol Myers Squibb", "ZIP": "08540", "MCD": "Lawrence Twp", "COUNTY": "Mercer", "STATE": "NJ", "TYPE": "Business/Office Park"}},{"geometry": {"type": "Point", "coordinates": [-74.71621158520267, 40.348933507707144]}, "type": "Feature", "id": 289, "properties": {"NAME": "Educational Testing Center", "ZIP": "08540", "MCD": "Lawrence Twp", "COUNTY": "Mercer", "STATE": "NJ", "TYPE": "Business/Office Park"}},{"geometry": {"type": "Point", "coordinates": [-74.64817128849815, 40.3178961249054]}, "type": "Feature", "id": 290, "properties": {"NAME": "Carnegie Center Industrial Park", "ZIP": "08540", "MCD": "West Windsor Twp", "COUNTY": "Mercer", "STATE": "NJ", "TYPE": "Business/Office Park"}},{"geometry": {"type": "Point", "coordinates": [-74.63075856555649, 40.33207192500586]}, "type": "Feature", "id": 291, "properties": {"NAME": "David Samoff Research Center", "ZIP": "08540", "MCD": "West Windsor Twp", "COUNTY": "Mercer", "STATE": "NJ", "TYPE": "Business/Office Park"}},{"geometry": {"type": "Point", "coordinates": [-74.64671994230855, 40.3277961288999]}, "type": "Feature", "id": 292, "properties": {"NAME": "Princeton Industrial Park", "ZIP": "08540", "MCD": "West Windsor Twp", "COUNTY": "Mercer", "STATE": "NJ", "TYPE": "Business/Office Park"}},{"geometry": {"type": "Point", "coordinates": [-74.64823051917097, 40.32503491620746]}, "type": "Feature", "id": 293, "properties": {"NAME": "Overlook Industrial Park", "ZIP": "08540", "MCD": "West Windsor Twp", "COUNTY": "Mercer", "STATE": "NJ", "TYPE": "Business/Office Park"}},{"geometry": {"type": "Point", "coordinates": [-74.77271812011294, 40.347789749270355]}, "type": "Feature", "id": 294, "properties": {"NAME": "Mobil Technical Center", "ZIP": "08534", "MCD": "Hopewell Twp", "COUNTY": "Mercer", "STATE": "NJ", "TYPE": "Business/Office Park"}},{"geometry": {"type": "Point", "coordinates": [-74.79792910905928, 40.32001331418813]}, "type": "Feature", "id": 295, "properties": {"NAME": "Pennington Industrial Center", "ZIP": "08534", "MCD": "Hopewell Twp", "COUNTY": "Mercer", "STATE": "NJ", "TYPE": "Business/Office Park"}},{"geometry": {"type": "Point", "coordinates": [-74.8291014219474, 40.278877126021655]}, "type": "Feature", "id": 296, "properties": {"NAME": "Mountainview Office Park", "ZIP": "08560", "MCD": "Ewing Twp", "COUNTY": "Mercer", "STATE": "NJ", "TYPE": "Business/Office Park"}},{"geometry": {"type": "Point", "coordinates": [-74.80447050798756, 40.28693191360306]}, "type": "Feature", "id": 297, "properties": {"NAME": "First Union", "ZIP": "08628", "MCD": "Ewing Twp", "COUNTY": "Mercer", "STATE": "NJ", "TYPE": "Business/Office Park"}},{"geometry": {"type": "Point", "coordinates": [-74.80693792802785, 40.28491944000886]}, "type": "Feature", "id": 298, "properties": {"NAME": "Airport Industrial Park", "ZIP": "08628", "MCD": "Ewing Twp", "COUNTY": "Mercer", "STATE": "NJ", "TYPE": "Business/Office Park"}},{"geometry": {"type": "Point", "coordinates": [-74.8039182043781, 40.30185035770166]}, "type": "Feature", "id": 299, "properties": {"NAME": "Merrill Lynch Office Park North Campus", "ZIP": "08560", "MCD": "Hopewell Twp", "COUNTY": "Mercer", "STATE": "NJ", "TYPE": "Business/Office Park"}},{"geometry": {"type": "Point", "coordinates": [-74.8073260768382, 40.27598278098952]}, "type": "Feature", "id": 300, "properties": {"NAME": "Scotch Road Plaza", "ZIP": "08628", "MCD": "Ewing Twp", "COUNTY": "Mercer", "STATE": "NJ", "TYPE": "Business/Office Park"}},{"geometry": {"type": "Point", "coordinates": [-74.79606799873845, 40.282248841044925]}, "type": "Feature", "id": 301, "properties": {"NAME": "Princeton Crossroads Corporate Center", "ZIP": "08628", "MCD": "Ewing Twp", "COUNTY": "Mercer", "STATE": "NJ", "TYPE": "Business/Office Park"}},{"geometry": {"type": "Point", "coordinates": [-74.75336906938232, 40.261597631870956]}, "type": "Feature", "id": 302, "properties": {"NAME": "Ewing Business Park", "ZIP": "08638", "MCD": "Ewing Twp", "COUNTY": "Mercer", "STATE": "NJ", "TYPE": "Business/Office Park"}},{"geometry": {"type": "Point", "coordinates": [-74.80785833613368, 40.25844306021854]}, "type": "Feature", "id": 303, "properties": {"NAME": "Heritage Crossing Industrial Park", "ZIP": "08628", "MCD": "Ewing Twp", "COUNTY": "Mercer", "STATE": "NJ", "TYPE": "Business/Office Park"}},{"geometry": {"type": "Point", "coordinates": [-74.70855042040033, 40.28801216814992]}, "type": "Feature", "id": 304, "properties": {"NAME": "Princeton Pk. Corporate Center", "ZIP": "08648", "MCD": "Lawrence Twp", "COUNTY": "Mercer", "STATE": "NJ", "TYPE": "Business/Office Park"}},{"geometry": {"type": "Point", "coordinates": [-74.70663078394786, 40.28426418922837]}, "type": "Feature", "id": 305, "properties": {"NAME": "Princeton South Corporate Center", "ZIP": "08648", "MCD": "Lawrence Twp", "COUNTY": "Mercer", "STATE": "NJ", "TYPE": "Business/Office Park"}},{"geometry": {"type": "Point", "coordinates": [-74.71765972054808, 40.28395639355695]}, "type": "Feature", "id": 306, "properties": {"NAME": "Princeton Pk. Office Center", "ZIP": "08648", "MCD": "Lawrence Twp", "COUNTY": "Mercer", "STATE": "NJ", "TYPE": "Business/Office Park"}},{"geometry": {"type": "Point", "coordinates": [-74.67311523830655, 40.29386078297693]}, "type": "Feature", "id": 307, "properties": {"NAME": "American Cyanamid", "ZIP": "08648", "MCD": "West Windsor Twp", "COUNTY": "Mercer", "STATE": "NJ", "TYPE": "Business/Office Park"}},{"geometry": {"type": "Point", "coordinates": [-74.66674656203142, 40.293601368433706]}, "type": "Feature", "id": 308, "properties": {"NAME": "West Windsor Commerce Center", "ZIP": "08648", "MCD": "West Windsor Twp", "COUNTY": "Mercer", "STATE": "NJ", "TYPE": "Business/Office Park"}},{"geometry": {"type": "Point", "coordinates": [-74.5836605313231, 40.29280818914415]}, "type": "Feature", "id": 309, "properties": {"NAME": "Southfield Commercial", "ZIP": "08512", "MCD": "West Windsor Twp", "COUNTY": "Mercer", "STATE": "NJ", "TYPE": "Business/Office Park"}},{"geometry": {"type": "Point", "coordinates": [-74.54754927097076, 40.27919835380698]}, "type": "Feature", "id": 310, "properties": {"NAME": "McGraw Hill Company", "ZIP": "08512", "MCD": "East Windsor Twp", "COUNTY": "Mercer", "STATE": "NJ", "TYPE": "Business/Office Park"}},{"geometry": {"type": "Point", "coordinates": [-74.58589653213429, 40.18582700582103]}, "type": "Feature", "id": 311, "properties": {"NAME": "I-195 Business Park", "ZIP": "08691", "MCD": "Washington Twp", "COUNTY": "Mercer", "STATE": "NJ", "TYPE": "Business/Office Park"}},{"geometry": {"type": "Point", "coordinates": [-74.62738463010326, 40.205065804542926]}, "type": "Feature", "id": 312, "properties": {"NAME": "South Gold Industrial Park", "ZIP": "08691", "MCD": "Hamilton Twp", "COUNTY": "Mercer", "STATE": "NJ", "TYPE": "Business/Office Park"}},{"geometry": {"type": "Point", "coordinates": [-74.64051093212083, 40.19975981054441]}, "type": "Feature", "id": 313, "properties": {"NAME": "Horizon Center Industrial Park", "ZIP": "08691", "MCD": "Hamilton Twp", "COUNTY": "Mercer", "STATE": "NJ", "TYPE": "Business/Office Park"}},{"geometry": {"type": "Point", "coordinates": [-74.70373605314671, 40.250656455075415]}, "type": "Feature", "id": 314, "properties": {"CITY": "Trenton", "NAME": "295 Corporate Park", "ZIP": "08619", "MCD": "HAMILTON TWP", "COUNTY": "Mercer", "STATE": "NJ", "ADDRESS": "I-295 & Sloan Ave", "TYPE": "Business/Office Park"}},{"geometry": {"type": "Point", "coordinates": [-74.63308076630715, 40.32023030469637]}, "type": "Feature", "id": 315, "properties": {"CITY": "Princeton", "NAME": "Alexander Park", "ZIP": "08540", "MCD": "WEST WINDSOR TWP", "COUNTY": "Mercer", "STATE": "NJ", "ADDRESS": "Alexander Rd & Rte 1 area", "TYPE": "Business/Office Park"}},{"geometry": {"type": "Point", "coordinates": [-74.81636130235484, 40.24986932086974]}, "type": "Feature", "id": 316, "properties": {"CITY": "Trenton", "NAME": "American Enterprise Park at Ewing", "ZIP": "08628", "MCD": "EWING TWP", "COUNTY": "Mercer", "STATE": "NJ", "ADDRESS": "Sullivan Way at Lower Ferry Rd", "TYPE": "Business/Office Park"}},{"geometry": {"type": "Point", "coordinates": [-74.76513110672089, 40.22024085905936]}, "type": "Feature", "id": 317, "properties": {"CITY": "Trenton", "NAME": "Capital Center", "ZIP": "08608", "MCD": "TRENTON CITY", "COUNTY": "Mercer", "STATE": "NJ", "ADDRESS": "50 E State St", "TYPE": "Business/Office Park"}},{"geometry": {"type": "Point", "coordinates": [-74.58433810052449, 40.19827425388295]}, "type": "Feature", "id": 318, "properties": {"CITY": "Trenton", "NAME": "Mercer Corporate Park", "ZIP": "08691", "MCD": "WASHINGTON TWP", "COUNTY": "Mercer", "STATE": "NJ", "ADDRESS": "I-195 & Rte 526", "TYPE": "Business/Office Park"}},{"geometry": {"type": "Point", "coordinates": [-74.67854155026822, 40.30191020367219]}, "type": "Feature", "id": 319, "properties": {"CITY": "Princeton", "NAME": "Nassau Park", "ZIP": "08540", "MCD": "WEST WINDSOR TWP", "COUNTY": "Mercer", "STATE": "NJ", "ADDRESS": "100 Nassau Park Blvd", "TYPE": "Business/Office Park"}},{"geometry": {"type": "Point", "coordinates": [-74.69239673627996, 40.28389609366776]}, "type": "Feature", "id": 320, "properties": {"CITY": "Trenton", "NAME": "Princeton Overlook", "ZIP": "08648", "MCD": "LAWRENCE TWP", "COUNTY": "Mercer", "STATE": "NJ", "ADDRESS": "Rte 1", "TYPE": "Business/Office Park"}},{"geometry": {"type": "Point", "coordinates": [-74.68458563452528, 40.25358943934291]}, "type": "Feature", "id": 321, "properties": {"CITY": "Trenton", "NAME": "Quakerbridge Plaza", "ZIP": "08619", "MCD": "HAMILTON TWP", "COUNTY": "Mercer", "STATE": "NJ", "ADDRESS": "Quakerbridge Rd", "TYPE": "Business/Office Park"}},{"geometry": {"type": "Point", "coordinates": [-74.76261719236496, 40.20547162116552]}, "type": "Feature", "id": 322, "properties": {"CITY": "Trenton", "NAME": "River View", "ZIP": "08611", "MCD": "TRENTON CITY", "COUNTY": "Mercer", "STATE": "NJ", "ADDRESS": "100-300 River View Executive Park", "TYPE": "Business/Office Park"}},{"geometry": {"type": "Point", "coordinates": [-74.75154026543422, 40.202362987964996]}, "type": "Feature", "id": 323, "properties": {"CITY": "Trenton", "NAME": "Roebling Metro", "ZIP": "08611", "MCD": "TRENTON CITY", "COUNTY": "Mercer", "STATE": "NJ", "ADDRESS": "171 Jersey St", "TYPE": "Business/Office Park"}},{"geometry": {"type": "Point", "coordinates": [-74.76807962488485, 40.2205068922601]}, "type": "Feature", "id": 324, "properties": {"CITY": "Trenton", "NAME": "State Street Square", "ZIP": "08608", "MCD": "TRENTON CITY", "COUNTY": "Mercer", "STATE": "NJ", "ADDRESS": "State & Willow Sts", "TYPE": "Business/Office Park"}},{"geometry": {"type": "Point", "coordinates": [-74.75478900255095, 40.21949671636881]}, "type": "Feature", "id": 325, "properties": {"CITY": "Trenton", "NAME": "Station Plaza", "ZIP": "08609", "MCD": "TRENTON CITY", "COUNTY": "Mercer", "STATE": "NJ", "ADDRESS": "Station Plaza & Clinton St", "TYPE": "Business/Office Park"}},{"geometry": {"type": "Point", "coordinates": [-74.67648182051019, 40.2596430293714]}, "type": "Feature", "id": 326, "properties": {"CITY": "Trenton", "NAME": "University Office Plaza", "ZIP": "08619", "MCD": "HAMILTON TWP", "COUNTY": "Mercer", "STATE": "NJ", "ADDRESS": "3671 Quakerbridge Rd", "TYPE": "Business/Office Park"}},{"geometry": {"type": "Point", "coordinates": [-74.63803377379523, 40.32536950573978]}, "type": "Feature", "id": 327, "properties": {"CITY": "Princeton", "NAME": "University Square", "ZIP": "08540", "MCD": "WEST WINDSOR TWP", "COUNTY": "Mercer", "STATE": "NJ", "ADDRESS": "Campus Dr", "TYPE": "Business/Office Park"}},{"geometry": {"type": "Point", "coordinates": [-74.55996030226262, 40.282442507046085]}, "type": "Feature", "id": 328, "properties": {"CITY": "Hightstown", "NAME": "Windsor Center", "ZIP": "08520", "MCD": "EAST WINDSOR TWP", "COUNTY": "Mercer", "STATE": "NJ", "ADDRESS": "Rte 571 & Old Trenton Rd", "TYPE": "Business/Office Park"}},{"geometry": {"type": "Point", "coordinates": [-74.75922550807175, 40.30478215614201]}, "type": "Feature", "id": 329, "properties": {"CITY": "Pennington", "NAME": "Stony Brook Elementary School", "ZIP": "08534", "COUNTY": "Mercer", "PHONE": "(609)730-4824", "STATE": "NJ", "ADDRESS": "20 Stephenson Road", "TYPE": "School", "SUB_TYPE": "Public"}},{"geometry": {"type": "Point", "coordinates": [-74.80747942974315, 40.3282590324961]}, "type": "Feature", "id": 330, "properties": {"CITY": "Pennington", "NAME": "Timberlane M.S.", "COUNTY": "Mercer", "PHONE": "(609)737-0200", "STATE": "NJ", "ADDRESS": "Timberlane Drive", "TYPE": "School", "SUB_TYPE": "Public"}},{"geometry": {"type": "Point", "coordinates": [-74.76841335515076, 40.28719471616161]}, "type": "Feature", "id": 331, "properties": {"CITY": "Pennington", "NAME": "MCVS Sypek Center V.S.", "COUNTY": "Mercer", "PHONE": "(609)737-9785", "STATE": "NJ", "ADDRESS": "129 Bull Run Road", "TYPE": "School", "SUB_TYPE": "Public"}},{"geometry": {"type": "Point", "coordinates": [-74.84677606220828, 40.30408450141521]}, "type": "Feature", "id": 332, "properties": {"CITY": "Titusville", "NAME": "Bear Tavern E.S.", "COUNTY": "Mercer", "PHONE": "(609)737-1344", "STATE": "NJ", "ADDRESS": "Bear Tavern Road", "TYPE": "School", "SUB_TYPE": "Public"}},{"geometry": {"type": "Point", "coordinates": [-74.75831760022733, 40.38760953651549]}, "type": "Feature", "id": 333, "properties": {"CITY": "Hopewell", "NAME": "Hopewell E.S.", "ZIP": "08525", "COUNTY": "Mercer", "PHONE": "(609)466-0272", "STATE": "NJ", "ADDRESS": "Princeton Avenue", "TYPE": "School", "SUB_TYPE": "Public"}},{"geometry": {"type": "Point", "coordinates": [-74.66438385630673, 40.35853233022996]}, "type": "Feature", "id": 334, "properties": {"CITY": "Princeton", "NAME": "Community Park E.S.", "COUNTY": "Mercer", "PHONE": "(609)924-7923", "STATE": "NJ", "ADDRESS": "372 Witherspoon Street", "TYPE": "School", "SUB_TYPE": "Public"}},{"geometry": {"type": "Point", "coordinates": [-74.63864139457775, 40.36369467884819]}, "type": "Feature", "id": 335, "properties": {"CITY": "Princeton", "NAME": "Littlebrook E.S.", "COUNTY": "Mercer", "PHONE": "(609)924-7925", "STATE": "NJ", "ADDRESS": "39 Magnolia Lane", "TYPE": "School", "SUB_TYPE": "Public"}},{"geometry": {"type": "Point", "coordinates": [-74.63671511274447, 40.3546024642269]}, "type": "Feature", "id": 336, "properties": {"CITY": "Princeton", "NAME": "Riverside E.S.", "COUNTY": "Mercer", "PHONE": "(609)924-7921", "STATE": "NJ", "ADDRESS": "58 Riverside Drive", "TYPE": "School", "SUB_TYPE": "Public"}},{"geometry": {"type": "Point", "coordinates": [-74.6546378682459, 40.36077546949835]}, "type": "Feature", "id": 337, "properties": {"CITY": "Princeton", "NAME": "John Witherspoon M.S.", "ZIP": "08540", "COUNTY": "Mercer", "PHONE": "(609)806-4270", "STATE": "NJ", "ADDRESS": "217 Walnut Lane", "TYPE": "School", "SUB_TYPE": "Public"}},{"geometry": {"type": "Point", "coordinates": [-74.68524805096756, 40.34863470963721]}, "type": "Feature", "id": 338, "properties": {"CITY": "Princeton", "NAME": "Johnson Park School", "ZIP": "08540", "COUNTY": "Mercer", "PHONE": "(609)497-2820", "STATE": "NJ", "ADDRESS": "285 Rosedale Road", "TYPE": "School", "SUB_TYPE": "Public"}},{"geometry": {"type": "Point", "coordinates": [-74.65558663381617, 40.35759482924422]}, "type": "Feature", "id": 339, "properties": {"CITY": "Princeton", "NAME": "Princeton H.S.", "COUNTY": "Mercer", "PHONE": "(609)806-4280", "STATE": "NJ", "ADDRESS": "151 Moore Street", "TYPE": "School", "SUB_TYPE": "Public"}},{"geometry": {"type": "Point", "coordinates": [-74.72017148023593, 40.276998305356464]}, "type": "Feature", "id": 340, "properties": {"CITY": "Lawrenceville", "NAME": "Benjamin Franklin E.S.", "COUNTY": "Mercer", "PHONE": "(609)530-8446", "STATE": "NJ", "ADDRESS": "2939 Princeton Pike", "TYPE": "School", "SUB_TYPE": "Public"}},{"geometry": {"type": "Point", "coordinates": [-74.73120532732729, 40.26557330819678]}, "type": "Feature", "id": 341, "properties": {"CITY": "Lawrenceville", "NAME": "Lawrence H.S.", "COUNTY": "Mercer", "PHONE": "(609)530-8369", "STATE": "NJ", "ADDRESS": "2525 Princeton Pike", "TYPE": "School", "SUB_TYPE": "Public"}},{"geometry": {"type": "Point", "coordinates": [-74.7393751464417, 40.27306214744818]}, "type": "Feature", "id": 342, "properties": {"CITY": "Lawrenceville", "NAME": "Lawrence Intermediate School", "COUNTY": "Mercer", "PHONE": "(609)530-8460", "STATE": "NJ", "ADDRESS": "66 Eggerts Crossing Road", "TYPE": "School", "SUB_TYPE": "Public"}},{"geometry": {"type": "Point", "coordinates": [-74.73239391618927, 40.26294198835191]}, "type": "Feature", "id": 343, "properties": {"CITY": "Lawrenceville", "NAME": "Lawrence M.S.", "COUNTY": "Mercer", "PHONE": "(609)530-8429", "STATE": "NJ", "ADDRESS": "2455 Princeton Pike", "TYPE": "School", "SUB_TYPE": "Public"}},{"geometry": {"type": "Point", "coordinates": [-74.73321599585228, 40.2986131820568]}, "type": "Feature", "id": 344, "properties": {"CITY": "Lawrenceville", "NAME": "Lawrenceville E.S.", "COUNTY": "Mercer", "PHONE": "(609)530-8452", "STATE": "NJ", "ADDRESS": "40 Craven Lane", "TYPE": "School", "SUB_TYPE": "Public"}},{"geometry": {"type": "Point", "coordinates": [-74.6933835537505, 40.311559598176174]}, "type": "Feature", "id": 345, "properties": {"CITY": "Lawrenceville", "NAME": "Slackwood E.S.", "COUNTY": "Mercer", "PHONE": "(609)530-8477", "STATE": "NJ", "ADDRESS": "2060 Princeton Pike", "TYPE": "School", "SUB_TYPE": "Public"}},{"geometry": {"type": "Point", "coordinates": [-74.74305447340575, 40.26267333630078]}, "type": "Feature", "id": 346, "properties": {"CITY": "Lawrenceville", "NAME": "Eldridge Park E.S.", "ZIP": "08648", "COUNTY": "Mercer", "PHONE": "(609)530-8521", "STATE": "NJ", "ADDRESS": "55 Lawn Park Ave.", "TYPE": "School", "SUB_TYPE": "Public"}},{"geometry": {"type": "Point", "coordinates": [-74.59973254573093, 40.271931378876964]}, "type": "Feature", "id": 347, "properties": {"CITY": "Princeton Junction", "NAME": "Village E.S.", "ZIP": "08550", "COUNTY": "Mercer", "PHONE": "(609)716-5200", "STATE": "NJ", "ADDRESS": "601 New Village Road", "TYPE": "School", "SUB_TYPE": "Public"}},{"geometry": {"type": "Point", "coordinates": [-74.6510131037958, 40.252722001139006]}, "type": "Feature", "id": 348, "properties": {"CITY": "Trenton", "NAME": "Joseph F. Cappello School", "COUNTY": "Mercer", "PHONE": "(609)588-8485", "STATE": "NJ", "ADDRESS": "1050 Old Trenton Road", "TYPE": "School", "SUB_TYPE": "Public"}},{"geometry": {"type": "Point", "coordinates": [-74.65089557304842, 40.2543073490526]}, "type": "Feature", "id": 349, "properties": {"CITY": "Trenton", "NAME": "Mercer Jr./Sr. High Sch", "COUNTY": "Mercer", "PHONE": "(609)588-8450", "STATE": "NJ", "ADDRESS": "1030 Old Trenton Road", "TYPE": "School", "SUB_TYPE": "Public"}},{"geometry": {"type": "Point", "coordinates": [-74.65343724705782, 40.25408477682134]}, "type": "Feature", "id": 350, "properties": {"CITY": "Trenton", "NAME": "N.J. Regional Day Sch at Hamilton", "COUNTY": "Mercer", "PHONE": "(609)588-8490", "STATE": "NJ", "ADDRESS": "1070 Old Trenton Road", "TYPE": "School", "SUB_TYPE": "Public"}},{"geometry": {"type": "Point", "coordinates": [-74.60971287590193, 40.281012728971966]}, "type": "Feature", "id": 351, "properties": {"CITY": "Princeton Jct.", "NAME": "Dutch Neck E.S.", "ZIP": "08550", "COUNTY": "Mercer", "PHONE": "(609)716-5400", "STATE": "NJ", "ADDRESS": "Village Road East", "TYPE": "School", "SUB_TYPE": "Public"}},{"geometry": {"type": "Point", "coordinates": [-74.62663673516548, 40.30671709439021]}, "type": "Feature", "id": 352, "properties": {"CITY": "Princeton Jct.", "NAME": "Maurice Hawk E.S.", "ZIP": "08550", "COUNTY": "Mercer", "PHONE": "(609)716-5425", "STATE": "NJ", "ADDRESS": "Clarksville Road", "TYPE": "School", "SUB_TYPE": "Public"}},{"geometry": {"type": "Point", "coordinates": [-74.59471588559039, 40.27267913347776]}, "type": "Feature", "id": 353, "properties": {"CITY": "Princeton Junction", "NAME": "Thomas R. Grover M.S.", "ZIP": "08550", "COUNTY": "Mercer", "PHONE": "(609)716-5250", "STATE": "NJ", "ADDRESS": "10 Southfield Road", "TYPE": "School", "SUB_TYPE": "Public"}},{"geometry": {"type": "Point", "coordinates": [-74.61973591422037, 40.3059484093473]}, "type": "Feature", "id": 354, "properties": {"CITY": "Princeton Jct.", "NAME": "W.W.P.H.S.-South Campus", "ZIP": "08550", "COUNTY": "Mercer", "PHONE": "(609)716-5050", "STATE": "NJ", "ADDRESS": "346 Clarksville Road", "TYPE": "School", "SUB_TYPE": "Public"}},{"geometry": {"type": "Point", "coordinates": [-74.80388763859912, 40.328139186624995]}, "type": "Feature", "id": 355, "properties": {"CITY": "Pennington", "NAME": "Central H.S.", "COUNTY": "Mercer", "PHONE": "(609)737-1411", "STATE": "NJ", "ADDRESS": "Pennington-Titusville Road", "TYPE": "School", "SUB_TYPE": "Public"}},{"geometry": {"type": "Point", "coordinates": [-74.78953531457513, 40.320914984370134]}, "type": "Feature", "id": 356, "properties": {"CITY": "Pennington", "NAME": "Toll Gate/Grammar E.S.", "COUNTY": "Mercer", "PHONE": "(609)737-0178", "STATE": "NJ", "ADDRESS": "275 Main Street", "TYPE": "School", "SUB_TYPE": "Public"}},{"geometry": {"type": "Point", "coordinates": [-74.49047065470646, 40.2613642547853]}, "type": "Feature", "id": 357, "properties": {"CITY": "East Windsor", "NAME": "Ethel McKnight E.S.", "ZIP": "08520", "COUNTY": "Mercer", "PHONE": "(609)443-7800", "STATE": "NJ", "ADDRESS": "Twin Rivers Dr. South", "TYPE": "School", "SUB_TYPE": "Public"}},{"geometry": {"type": "Point", "coordinates": [-74.56306046014839, 40.27331146519232]}, "type": "Feature", "id": 358, "properties": {"CITY": "East Windsor", "NAME": "Melvin H. Kreps Middle School", "ZIP": "08520", "COUNTY": "Mercer", "PHONE": "(609)443-7804", "STATE": "NJ", "ADDRESS": "5 Kent Lane", "TYPE": "School", "SUB_TYPE": "Public"}},{"geometry": {"type": "Point", "coordinates": [-74.56306046014839, 40.27331146519232]}, "type": "Feature", "id": 359, "properties": {"CITY": "East Windsor", "NAME": "Melvin H. Kreps M.S.", "ZIP": "08520", "COUNTY": "Mercer", "PHONE": "(609)443-7767", "STATE": "NJ", "ADDRESS": "Kent Lane", "TYPE": "School", "SUB_TYPE": "Public"}},{"geometry": {"type": "Point", "coordinates": [-74.48892523716206, 40.27444333151383]}, "type": "Feature", "id": 360, "properties": {"CITY": "East Windsor", "NAME": "Perry L. Drew E.S.", "ZIP": "08520", "COUNTY": "Mercer", "PHONE": "(609)443-7820", "STATE": "NJ", "ADDRESS": "Twin Rivers Drive North", "TYPE": "School", "SUB_TYPE": "Public"}},{"geometry": {"type": "Point", "coordinates": [-74.79078104706282, 40.25471541474105]}, "type": "Feature", "id": 361, "properties": {"CITY": "Ewing", "NAME": "Ewing H.S.", "COUNTY": "Mercer", "PHONE": "(609)538-9800", "STATE": "NJ", "ADDRESS": "900 Parkway Ave.", "TYPE": "School", "SUB_TYPE": "Public"}},{"geometry": {"type": "Point", "coordinates": [-74.83657064169267, 40.278287213505884]}, "type": "Feature", "id": 362, "properties": {"CITY": "Ewing", "NAME": "Francis Lore E.S.", "COUNTY": "Mercer", "PHONE": "(609)538-9800", "STATE": "NJ", "ADDRESS": "13 Westwood Drive", "TYPE": "School", "SUB_TYPE": "Public"}},{"geometry": {"type": "Point", "coordinates": [-74.79381774932273, 40.27313818091233]}, "type": "Feature", "id": 363, "properties": {"CITY": "Ewing", "NAME": "Gilmore J. Fisher M.S.", "COUNTY": "Mercer", "PHONE": "(609)538-9800", "STATE": "NJ", "ADDRESS": "1325 Lower Ferry Road", "TYPE": "School", "SUB_TYPE": "Public"}},{"geometry": {"type": "Point", "coordinates": [-74.77854921202525, 40.24211406537217]}, "type": "Feature", "id": 364, "properties": {"CITY": "Ewing", "NAME": "Parkway E.S.", "COUNTY": "Mercer", "PHONE": "(609)538-9800", "STATE": "NJ", "ADDRESS": "446 Parkway Avenue", "TYPE": "School", "SUB_TYPE": "Public"}},{"geometry": {"type": "Point", "coordinates": [-74.76751956220865, 40.272618725207785]}, "type": "Feature", "id": 365, "properties": {"CITY": "Ewing", "NAME": "William L. Antheil E.S.", "COUNTY": "Mercer", "PHONE": "(609)538-9800", "STATE": "NJ", "ADDRESS": "339 Ewingville Road", "TYPE": "School", "SUB_TYPE": "Public"}},{"geometry": {"type": "Point", "coordinates": [-74.76457658168292, 40.25142199385635]}, "type": "Feature", "id": 366, "properties": {"CITY": "Trenton", "NAME": "Alfred Reed School", "ZIP": "08638", "COUNTY": "Mercer", "PHONE": "(609)771-4466", "STATE": "NJ", "ADDRESS": "11 Buttonwood Drive", "TYPE": "School", "SUB_TYPE": "Public"}},{"geometry": {"type": "Point", "coordinates": [-74.5307201670078, 40.26111698472195]}, "type": "Feature", "id": 367, "properties": {"CITY": "Hightstown", "NAME": "Hightstown H.S.", "COUNTY": "Mercer", "PHONE": "(609)443-7738", "STATE": "NJ", "ADDRESS": "Leshin Lane", "TYPE": "School", "SUB_TYPE": "Public"}},{"geometry": {"type": "Point", "coordinates": [-74.5307201670078, 40.26111698472195]}, "type": "Feature", "id": 368, "properties": {"CITY": "East Windsor", "NAME": "Adult High School", "ZIP": "08520", "COUNTY": "Mercer", "PHONE": "(609)443-7804", "STATE": "NJ", "ADDRESS": "East Ward Street", "TYPE": "School", "SUB_TYPE": "Public"}},{"geometry": {"type": "Point", "coordinates": [-74.53270963651926, 40.271736723724686]}, "type": "Feature", "id": 369, "properties": {"CITY": "Hightstown", "NAME": "Grace Norton Rogers E.S.", "ZIP": "08520", "COUNTY": "Mercer", "PHONE": "(609)443-7833", "STATE": "NJ", "ADDRESS": "Stockton St.", "TYPE": "School", "SUB_TYPE": "Public"}},{"geometry": {"type": "Point", "coordinates": [-74.53363644647091, 40.27043001828856]}, "type": "Feature", "id": 370, "properties": {"CITY": "Hightstown", "NAME": "Walter C. Black E.S.", "ZIP": "08520", "COUNTY": "Mercer", "PHONE": "(609)443-7816", "STATE": "NJ", "ADDRESS": "Stockton St.", "TYPE": "School", "SUB_TYPE": "Public"}},{"geometry": {"type": "Point", "coordinates": [-74.7236782798459, 40.198522828272]}, "type": "Feature", "id": 371, "properties": {"CITY": "Hamilton", "NAME": "Hamilton West-Watson H.S.", "COUNTY": "Mercer", "PHONE": "(609)631-4168", "STATE": "NJ", "ADDRESS": "2720 South Clinton Avenue", "TYPE": "School", "SUB_TYPE": "Public"}},{"geometry": {"type": "Point", "coordinates": [-74.6544062055118, 40.217616059141804]}, "type": "Feature", "id": 372, "properties": {"CITY": "Hamilton Square", "NAME": "Alexander E.S.", "COUNTY": "Mercer", "PHONE": "(609)631-4148", "STATE": "NJ", "ADDRESS": "20 Robert Frost Drive", "TYPE": "School", "SUB_TYPE": "Public"}},{"geometry": {"type": "Point", "coordinates": [-74.69111717104137, 40.201914160731455]}, "type": "Feature", "id": 373, "properties": {"CITY": "Trenton", "NAME": "Albert E. Grice M.S.", "COUNTY": "Mercer", "PHONE": "(609)631-4152", "STATE": "NJ", "ADDRESS": "901 Whitehorse-Hamilton Square Rd", "TYPE": "School", "SUB_TYPE": "Public"}},{"geometry": {"type": "Point", "coordinates": [-74.72064100674764, 40.20006960838311]}, "type": "Feature", "id": 374, "properties": {"CITY": "Trenton", "NAME": "George E. Wilson E.S.", "COUNTY": "Mercer", "PHONE": "(609)631-4169", "STATE": "NJ", "ADDRESS": "600 East Park Avenue", "TYPE": "School", "SUB_TYPE": "Public"}},{"geometry": {"type": "Point", "coordinates": [-74.72365694375576, 40.23000674741994]}, "type": "Feature", "id": 375, "properties": {"CITY": "Trenton", "NAME": "Greenwood E.S.", "COUNTY": "Mercer", "PHONE": "(609)631-4151", "STATE": "NJ", "ADDRESS": "2069 Greenwood Avenue", "TYPE": "School", "SUB_TYPE": "Public"}},{"geometry": {"type": "Point", "coordinates": [-74.66250917920412, 40.21633814351494]}, "type": "Feature", "id": 376, "properties": {"CITY": "Trenton", "NAME": "Hamilton East-Steinert H.S.", "ZIP": "08619", "COUNTY": "Mercer", "PHONE": "(609)631-4150", "STATE": "NJ", "ADDRESS": "2900 Klockner Road", "TYPE": "School", "SUB_TYPE": "Public"}},{"geometry": {"type": "Point", "coordinates": [-74.70925287726885, 40.22944195223103]}, "type": "Feature", "id": 377, "properties": {"CITY": "Trenton", "NAME": "Hamilton North-Nottingham H.S.", "COUNTY": "Mercer", "PHONE": "(609)631-4161", "STATE": "NJ", "ADDRESS": "1055 Klockner Road", "TYPE": "School", "SUB_TYPE": "Public"}},{"geometry": {"type": "Point", "coordinates": [-74.71595156880213, 40.18724936187007]}, "type": "Feature", "id": 378, "properties": {"CITY": "Trenton", "NAME": "Kisthardt E.S.", "COUNTY": "Mercer", "PHONE": "(609)631-4153", "STATE": "NJ", "ADDRESS": "215 Harcourt Drive", "TYPE": "School", "SUB_TYPE": "Public"}},{"geometry": {"type": "Point", "coordinates": [-74.70961008305183, 40.23457323558312]}, "type": "Feature", "id": 379, "properties": {"CITY": "Trenton", "NAME": "Klockner E.S.", "COUNTY": "Mercer", "PHONE": "(609)890-3747", "STATE": "NJ", "ADDRESS": "830 Klockner Avenue", "TYPE": "School", "SUB_TYPE": "Public"}},{"geometry": {"type": "Point", "coordinates": [-74.72546964305523, 40.22018749937087]}, "type": "Feature", "id": 380, "properties": {"CITY": "Trenton", "NAME": "Kuser E.S.", "COUNTY": "Mercer", "PHONE": "(609)631-4155", "STATE": "NJ", "ADDRESS": "70 Newkirk Avenue", "TYPE": "School", "SUB_TYPE": "Public"}},{"geometry": {"type": "Point", "coordinates": [-74.74097867602646, 40.19610397083021]}, "type": "Feature", "id": 381, "properties": {"CITY": "Trenton", "NAME": "Lalor E.S.", "COUNTY": "Mercer", "PHONE": "(609)631-4156", "STATE": "NJ", "ADDRESS": "25 Barnt DeKlyn Road", "TYPE": "School", "SUB_TYPE": "Public"}},{"geometry": {"type": "Point", "coordinates": [-74.67810954801762, 40.22398909547954]}, "type": "Feature", "id": 382, "properties": {"CITY": "Trenton", "NAME": "Langtree E.S.", "COUNTY": "Mercer", "PHONE": "(609)631-4157", "STATE": "NJ", "ADDRESS": "2080 Whatley Road", "TYPE": "School", "SUB_TYPE": "Public"}},{"geometry": {"type": "Point", "coordinates": [-74.70769846767612, 40.19715393445688]}, "type": "Feature", "id": 383, "properties": {"CITY": "Trenton", "NAME": "McGalliard E.S.", "COUNTY": "Mercer", "PHONE": "(609)631-4158", "STATE": "NJ", "ADDRESS": "1600 Arena Drive", "TYPE": "School", "SUB_TYPE": "Public"}},{"geometry": {"type": "Point", "coordinates": [-74.68956368271515, 40.23701461462554]}, "type": "Feature", "id": 384, "properties": {"CITY": "Trenton", "NAME": "Mercerville E.S.", "COUNTY": "Mercer", "PHONE": "(609)631-4159", "STATE": "NJ", "ADDRESS": "60 Regina Avenue", "TYPE": "School", "SUB_TYPE": "Public"}},{"geometry": {"type": "Point", "coordinates": [-74.68034948810052, 40.24323345031105]}, "type": "Feature", "id": 385, "properties": {"CITY": "Trenton", "NAME": "Morgan E.S.", "COUNTY": "Mercer", "PHONE": "(609)631-4160", "STATE": "NJ", "ADDRESS": "38 Stamford Road", "TYPE": "School", "SUB_TYPE": "Public"}},{"geometry": {"type": "Point", "coordinates": [-74.69447099495439, 40.19579066474697]}, "type": "Feature", "id": 386, "properties": {"CITY": "Trenton", "NAME": "Robinson E.S.", "COUNTY": "Mercer", "PHONE": "(609)631-4163", "STATE": "NJ", "ADDRESS": "495 Gropp Avenue", "TYPE": "School", "SUB_TYPE": "Public"}},{"geometry": {"type": "Point", "coordinates": [-74.67113290627253, 40.231738711410934]}, "type": "Feature", "id": 387, "properties": {"CITY": "Trenton", "NAME": "Sayen E.S.", "COUNTY": "Mercer", "PHONE": "(609)631-4164", "STATE": "NJ", "ADDRESS": "3333 Nottingham Way", "TYPE": "School", "SUB_TYPE": "Public"}},{"geometry": {"type": "Point", "coordinates": [-74.67154453113584, 40.18869716453613]}, "type": "Feature", "id": 388, "properties": {"CITY": "Trenton", "NAME": "Sunnybrae E.S.", "COUNTY": "Mercer", "PHONE": "(609)631-4166", "STATE": "NJ", "ADDRESS": "166 Elton Avenue", "TYPE": "School", "SUB_TYPE": "Public"}},{"geometry": {"type": "Point", "coordinates": [-74.6708314388589, 40.25516004529754]}, "type": "Feature", "id": 389, "properties": {"CITY": "Trenton", "NAME": "University Hts./H.D. Morrison E.S.", "ZIP": "08690", "COUNTY": "Mercer", "PHONE": "(609)631-4167", "STATE": "NJ", "ADDRESS": "645 Paxson Avenue", "TYPE": "School", "SUB_TYPE": "Public"}},{"geometry": {"type": "Point", "coordinates": [-74.65895352775094, 40.2529857263606]}, "type": "Feature", "id": 390, "properties": {"CITY": "Trenton", "NAME": "MCVS Assunpink Center V.S.", "COUNTY": "Mercer", "PHONE": "(609)586-5144", "STATE": "NJ", "ADDRESS": "1085 Old Trenton Road", "TYPE": "School", "SUB_TYPE": "Public"}},{"geometry": {"type": "Point", "coordinates": [-74.68559697277885, 40.186837970255496]}, "type": "Feature", "id": 391, "properties": {"CITY": "Yardville", "NAME": "Yardville Heights E.S.", "COUNTY": "Mercer", "PHONE": "(609)631-4171", "STATE": "NJ", "ADDRESS": "3880 South Broad Street", "TYPE": "School", "SUB_TYPE": "Public"}},{"geometry": {"type": "Point", "coordinates": [-74.65860163057222, 40.25172393753727]}, "type": "Feature", "id": 392, "properties": {"CITY": "Trenton", "NAME": "MCVS of Performing Arts", "COUNTY": "Mercer", "PHONE": "(609)586-3550", "STATE": "NJ", "ADDRESS": "P.O. Box B  AV-210", "TYPE": "School", "SUB_TYPE": "Public"}},{"geometry": {"type": "Point", "coordinates": [-74.70693989436799, 40.23096984895416]}, "type": "Feature", "id": 393, "properties": {"CITY": "Trenton", "NAME": "MCVS Health Occupations Center", "COUNTY": "Mercer", "PHONE": "(609)587-7640", "STATE": "NJ", "ADDRESS": "1070 Klockner Road", "TYPE": "School", "SUB_TYPE": "Public"}},{"geometry": {"type": "Point", "coordinates": [-74.65895352775094, 40.2529857263606]}, "type": "Feature", "id": 394, "properties": {"CITY": "Trenton", "NAME": "MCVS Evening School", "COUNTY": "Mercer", "PHONE": "(609)586-5146", "STATE": "NJ", "ADDRESS": "1085 Old Trenton Road", "TYPE": "School", "SUB_TYPE": "Public"}},{"geometry": {"type": "Point", "coordinates": [-74.66249878774026, 40.23220904533453]}, "type": "Feature", "id": 395, "properties": {"CITY": "Hamilton Square", "NAME": "Accredited Evening H.S.", "ZIP": "08690", "COUNTY": "Mercer", "PHONE": "(609)890-3600", "STATE": "NJ", "ADDRESS": "90 Park Avenue", "TYPE": "School", "SUB_TYPE": "Public"}},{"geometry": {"type": "Point", "coordinates": [-74.6625300856326, 40.21912956534765]}, "type": "Feature", "id": 396, "properties": {"CITY": "Trenton", "NAME": "Emily C. Reynolds M.S.", "ZIP": "08690", "COUNTY": "Mercer", "PHONE": "(609)631-4162", "STATE": "NJ", "ADDRESS": "2145 Yardville-Hamilton Square Road", "TYPE": "School", "SUB_TYPE": "Public"}},{"geometry": {"type": "Point", "coordinates": [-74.64723286386302, 40.20577933389809]}, "type": "Feature", "id": 397, "properties": {"CITY": "Trenton", "NAME": "Richard C. Crockett M.S.", "ZIP": "08691", "COUNTY": "Mercer", "PHONE": "(609)631-4149", "STATE": "NJ", "ADDRESS": "2631 Kuser Road", "TYPE": "School", "SUB_TYPE": "Public"}},{"geometry": {"type": "Point", "coordinates": [-74.66232533726097, 40.17743674887988]}, "type": "Feature", "id": 398, "properties": {"CITY": "Trenton", "NAME": "Yardville E.S.", "ZIP": "08620", "COUNTY": "Mercer", "PHONE": "(609)631-4170", "STATE": "NJ", "ADDRESS": "450 Yardville-Allentown Rd.", "TYPE": "School", "SUB_TYPE": "Public"}},{"geometry": {"type": "Point", "coordinates": [-74.73280680265442, 40.19906616577145]}, "type": "Feature", "id": 399, "properties": {"CITY": "Trenton", "NAME": "White Horse School", "ZIP": "08610", "COUNTY": "Mercer", "STATE": "NJ", "ADDRESS": "52 Lafayette Street", "TYPE": "School", "SUB_TYPE": "Public"}},{"geometry": {"type": "Point", "coordinates": [-74.57679027700745, 40.21363137188807]}, "type": "Feature", "id": 400, "properties": {"CITY": "Robbinsville", "NAME": "Sharon E.S.", "COUNTY": "Mercer", "PHONE": "(609)259-7606", "STATE": "NJ", "ADDRESS": "234 Sharon Road", "TYPE": "School", "SUB_TYPE": "Public"}},{"geometry": {"type": "Point", "coordinates": [-74.625102059268, 40.23603760653186]}, "type": "Feature", "id": 401, "properties": {"CITY": "Robbinsville", "NAME": "Pond Road Middle", "ZIP": "08691", "COUNTY": "Mercer", "PHONE": "(609)371-1140", "STATE": "NJ", "ADDRESS": "150 Pond Road", "TYPE": "School", "SUB_TYPE": "Public"}},{"geometry": {"type": "Point", "coordinates": [-74.77738470409595, 40.23165438768604]}, "type": "Feature", "id": 402, "properties": {"CITY": "Trenton", "NAME": "Gregory E.S.", "COUNTY": "Mercer", "PHONE": "(609)989-2510", "STATE": "NJ", "ADDRESS": "500 Rutherford Avenue", "TYPE": "School", "SUB_TYPE": "Public"}},{"geometry": {"type": "Point", "coordinates": [-74.74295005518422, 40.22595729778203]}, "type": "Feature", "id": 403, "properties": {"CITY": "Trenton", "NAME": "P. J. Hill E.S.", "COUNTY": "Mercer", "PHONE": "(609)989-2571", "STATE": "NJ", "ADDRESS": "1010 East State Street", "TYPE": "School", "SUB_TYPE": "Public"}},{"geometry": {"type": "Point", "coordinates": [-74.74385145858166, 40.23509426651836]}, "type": "Feature", "id": 404, "properties": {"CITY": "Trenton", "NAME": "Woodrow Wilson E.S.", "COUNTY": "Mercer", "PHONE": "(609)989-2546", "STATE": "NJ", "ADDRESS": "175 Girard Avenue", "TYPE": "School", "SUB_TYPE": "Public"}},{"geometry": {"type": "Point", "coordinates": [-74.79268327472384, 40.23190609424684]}, "type": "Feature", "id": 405, "properties": {"CITY": "Trenton", "NAME": "Arthur Holland M.S.", "ZIP": "08618", "COUNTY": "Mercer", "PHONE": "(609)989-2730", "STATE": "NJ", "ADDRESS": "1001 West State St.", "TYPE": "School", "SUB_TYPE": "Public"}},{"geometry": {"type": "Point", "coordinates": [-74.78009413414037, 40.228668120053]}, "type": "Feature", "id": 406, "properties": {"CITY": "Trenton", "NAME": "Cadwalader E.S.", "ZIP": "08618", "COUNTY": "Mercer", "PHONE": "(609)989-2515", "STATE": "NJ", "ADDRESS": "Edgewood Avenue", "TYPE": "School", "SUB_TYPE": "Public"}},{"geometry": {"type": "Point", "coordinates": [-74.74524112899175, 40.24218420177433]}, "type": "Feature", "id": 407, "properties": {"CITY": "Trenton", "NAME": "Columbus E.S.", "ZIP": "08638", "COUNTY": "Mercer", "PHONE": "(609)989-2533", "STATE": "NJ", "ADDRESS": "1200 Brunswick Avenue", "TYPE": "School", "SUB_TYPE": "Public"}},{"geometry": {"type": "Point", "coordinates": [-74.78202539049076, 40.23274875941167]}, "type": "Feature", "id": 408, "properties": {"CITY": "Trenton", "NAME": "Daylight/Twilight H.S.", "ZIP": "08618", "COUNTY": "Mercer", "PHONE": "(609)989-2494", "STATE": "NJ", "ADDRESS": "720 Bellevue Avenue", "TYPE": "School", "SUB_TYPE": "Public"}},{"geometry": {"type": "Point", "coordinates": [-74.74013428361297, 40.20573042728934]}, "type": "Feature", "id": 409, "properties": {"CITY": "Trenton", "NAME": "Franklin E.S.", "ZIP": "08610", "COUNTY": "Mercer", "PHONE": "(609)989-2620", "STATE": "NJ", "ADDRESS": "200 William Street", "TYPE": "School", "SUB_TYPE": "Public"}},{"geometry": {"type": "Point", "coordinates": [-74.74177343381392, 40.20103445687634]}, "type": "Feature", "id": 410, "properties": {"CITY": "Trenton", "NAME": "Grace A. Dunn M.S.", "ZIP": "08610", "COUNTY": "Mercer", "PHONE": "(609)989-2582", "STATE": "NJ", "ADDRESS": "401 Dayton Street", "TYPE": "School", "SUB_TYPE": "Public"}},{"geometry": {"type": "Point", "coordinates": [-74.75394504287539, 40.22475096344257]}, "type": "Feature", "id": 411, "properties": {"CITY": "Trenton", "NAME": "Grant E.S.", "ZIP": "08609", "COUNTY": "Mercer", "PHONE": "(609)989-2638", "STATE": "NJ", "ADDRESS": "159 N. Clinton Avenue", "TYPE": "School", "SUB_TYPE": "Public"}},{"geometry": {"type": "Point", "coordinates": [-74.74705769366349, 40.20638433052673]}, "type": "Feature", "id": 412, "properties": {"CITY": "Trenton", "NAME": "Harrison E.S.", "ZIP": "08611", "COUNTY": "Mercer", "PHONE": "(609)989-2525", "STATE": "NJ", "ADDRESS": "461 Genessee Street", "TYPE": "School", "SUB_TYPE": "Public"}},{"geometry": {"type": "Point", "coordinates": [-74.7360123445396, 40.221649037534526]}, "type": "Feature", "id": 413, "properties": {"CITY": "Trenton", "NAME": "Hedgepeth-Williams M.S.", "ZIP": "08629", "COUNTY": "Mercer", "PHONE": "(609)989-2781", "STATE": "NJ", "ADDRESS": "301 Gladstone Avenue", "TYPE": "School", "SUB_TYPE": "Public"}},{"geometry": {"type": "Point", "coordinates": [-74.75804562793772, 40.23053446061872]}, "type": "Feature", "id": 414, "properties": {"CITY": "Trenton", "NAME": "Jefferson E.S.", "ZIP": "08638", "COUNTY": "Mercer", "PHONE": "(609)989-2680", "STATE": "NJ", "ADDRESS": "401 Brunswick Avenue", "TYPE": "School", "SUB_TYPE": "Public"}},{"geometry": {"type": "Point", "coordinates": [-74.79065905340083, 40.24116651483403]}, "type": "Feature", "id": 415, "properties": {"CITY": "Trenton", "NAME": "Joyce Kilmer E.S.", "ZIP": "08618", "COUNTY": "Mercer", "PHONE": "(609)989-2710", "STATE": "NJ", "ADDRESS": "1 Whittlesey Road", "TYPE": "School", "SUB_TYPE": "Public"}},{"geometry": {"type": "Point", "coordinates": [-74.76211176975146, 40.22588634557212]}, "type": "Feature", "id": 416, "properties": {"CITY": "Trenton", "NAME": "Luis Munoz Rivera E.S.", "ZIP": "08618", "COUNTY": "Mercer", "PHONE": "(609)989-2670", "STATE": "NJ", "ADDRESS": "400 N. Montgomery Street", "TYPE": "School", "SUB_TYPE": "Public"}},{"geometry": {"type": "Point", "coordinates": [-74.75935882649078, 40.23196565716589]}, "type": "Feature", "id": 417, "properties": {"CITY": "Trenton", "NAME": "Martin Luther King Jr M.S.", "ZIP": "08638", "COUNTY": "Mercer", "PHONE": "(609)989-2690", "STATE": "NJ", "ADDRESS": "800 Martin Luther King Blvd.", "TYPE": "School", "SUB_TYPE": "Public"}},{"geometry": {"type": "Point", "coordinates": [-74.76856608374099, 40.2281438592734]}, "type": "Feature", "id": 418, "properties": {"CITY": "Trenton", "NAME": "Monument E.S.", "ZIP": "08618", "COUNTY": "Mercer", "PHONE": "(609)989-2751", "STATE": "NJ", "ADDRESS": "145 Pennington Avenue", "TYPE": "School", "SUB_TYPE": "Public"}},{"geometry": {"type": "Point", "coordinates": [-74.75686402509736, 40.20109308797391]}, "type": "Feature", "id": 419, "properties": {"CITY": "Trenton", "NAME": "Mott E.S.", "ZIP": "08611", "COUNTY": "Mercer", "PHONE": "(609)989-2600", "STATE": "NJ", "ADDRESS": "45 Stokely Avenue", "TYPE": "School", "SUB_TYPE": "Public"}},{"geometry": {"type": "Point", "coordinates": [-74.76336046671831, 40.209541235076664]}, "type": "Feature", "id": 420, "properties": {"CITY": "Trenton", "NAME": "Parker E.S.", "ZIP": "08611", "COUNTY": "Mercer", "PHONE": "(609)989-2602", "STATE": "NJ", "ADDRESS": "117 Ferry Street", "TYPE": "School", "SUB_TYPE": "Public"}},{"geometry": {"type": "Point", "coordinates": [-74.73593404674857, 40.2210288309963]}, "type": "Feature", "id": 421, "properties": {"CITY": "Trenton", "NAME": "Paul Robeson E.S.", "ZIP": "08629", "COUNTY": "Mercer", "PHONE": "(609)989-2765", "STATE": "NJ", "ADDRESS": "350 Cuyler Avenue", "TYPE": "School", "SUB_TYPE": "Public"}},{"geometry": {"type": "Point", "coordinates": [-74.74982903340874, 40.216336329203784]}, "type": "Feature", "id": 422, "properties": {"CITY": "Trenton", "NAME": "Robbins E.S.", "ZIP": "08609", "COUNTY": "Mercer", "PHONE": "(609)989-2629", "STATE": "NJ", "ADDRESS": "283 Tyler Street", "TYPE": "School", "SUB_TYPE": "Public"}},{"geometry": {"type": "Point", "coordinates": [-74.78251754823272, 40.24095224030022]}, "type": "Feature", "id": 423, "properties": {"CITY": "Trenton", "NAME": "Stokes E.S.", "ZIP": "08618", "COUNTY": "Mercer", "PHONE": "(609)989-2520", "STATE": "NJ", "ADDRESS": "915 Parkside Avenue", "TYPE": "School", "SUB_TYPE": "Public"}},{"geometry": {"type": "Point", "coordinates": [-74.74274861988187, 40.218953770553725]}, "type": "Feature", "id": 424, "properties": {"CITY": "Trenton", "NAME": "Trenton Central H.S.", "ZIP": "08609", "COUNTY": "Mercer", "PHONE": "(609)989-2496", "STATE": "NJ", "ADDRESS": "400 Chambers Street", "TYPE": "School", "SUB_TYPE": "Public"}},{"geometry": {"type": "Point", "coordinates": [-74.74518529497654, 40.21017938138361]}, "type": "Feature", "id": 425, "properties": {"CITY": "Trenton", "NAME": "Washington E.S.", "ZIP": "08611", "COUNTY": "Mercer", "PHONE": "(609)989-2528", "STATE": "NJ", "ADDRESS": "331 Emory Avenue", "TYPE": "School", "SUB_TYPE": "Public"}},{"geometry": {"type": "Point", "coordinates": [-74.518952362151, 40.26252099235373]}, "type": "Feature", "id": 426, "properties": {"CITY": "East Windsor", "NAME": "Adult High School", "ZIP": "08520", "COUNTY": "Mercer", "PHONE": "(609)443-7804", "STATE": "NJ", "ADDRESS": "East Ward Street", "TYPE": "School", "SUB_TYPE": "Public"}},{"geometry": {"type": "Point", "coordinates": [-74.61793278471765, 40.23838925154978]}, "type": "Feature", "id": 427, "properties": {"CITY": "Robbinsville", "NAME": "Robbinsville High School", "ZIP": "08690", "COUNTY": "Mercer", "PHONE": "(609)632-0950", "STATE": "NJ", "ADDRESS": "155 Robbinsville-Edinburg Road", "TYPE": "School", "SUB_TYPE": "Public"}},{"geometry": {"type": "Point", "coordinates": [-74.87652592206497, 40.30444113801585]}, "type": "Feature", "id": 428, "properties": {"CITY": "Titusville", "NAME": "The Titusville Academy", "ZIP": "08560", "COUNTY": "Mercer", "PHONE": "(609)737-7733", "STATE": "NJ", "ADDRESS": "86 River Dr.", "TYPE": "School", "SUB_TYPE": "Private"}},{"geometry": {"type": "Point", "coordinates": [-74.76190138488961, 40.390713606867834]}, "type": "Feature", "id": 429, "properties": {"CITY": "Hopewell", "NAME": "Waldorf's School of Princeton", "ZIP": "08525", "COUNTY": "Mercer", "PHONE": "(609)466-1970", "STATE": "NJ", "ADDRESS": "18 Blackwell Ave.", "TYPE": "School", "SUB_TYPE": "Private"}},{"geometry": {"type": "Point", "coordinates": [-74.63363191907081, 40.23187476697456]}, "type": "Feature", "id": 430, "properties": {"CITY": "Robbinsville", "NAME": "Harmony School at Foxmoor", "ZIP": "08691", "COUNTY": "Mercer", "PHONE": "(609)799-4411", "STATE": "NJ", "ADDRESS": "2022 Washington Blvd.", "TYPE": "School", "SUB_TYPE": "Private"}},{"geometry": {"type": "Point", "coordinates": [-74.76827952310002, 40.326461598543744]}, "type": "Feature", "id": 431, "properties": {"NAME": "MERCER EQUESTRIAN CENTER", "MCD": "HOPEWELL TWP", "COUNTY": "Mercer", "PHONE": "6097309059", "STATE": "NJ", "ADDRESS": "431  FEDERAL CITY RD", "TYPE": "Park", "SUB_TYPE": "County Park"}},{"geometry": {"type": "Point", "coordinates": [-74.7777209865089, 40.23011966772276]}, "type": "Feature", "id": 432, "properties": {"NAME": "MERCER MEDICAL CENTER", "MCD": "TRENTON CITY", "COUNTY": "Mercer", "PHONE": "6093944000", "STATE": "NJ", "ADDRESS": "446  BELLVUE AVE", "TYPE": "Medical", "SUB_TYPE": "Hospital"}},{"geometry": {"type": "Point", "coordinates": [-74.6502228279729, 40.277725872235]}, "type": "Feature", "id": 433, "properties": {"NAME": "MERCER OAKS GOLF COURSE", "MCD": "WEST WINDSOR TWP", "COUNTY": "Mercer", "PHONE": "6094344125", "STATE": "NJ", "ADDRESS": "725  VILLAGE RD W", "TYPE": "Park", "SUB_TYPE": "County Park"}},{"geometry": {"type": "Point", "coordinates": [-74.68736990964861, 40.236118965583074]}, "type": "Feature", "id": 434, "properties": {"FAX": "6098907880", "NAME": "MERCERVILLE FD", "MCD": "HAMILTON TWP", "COUNTY": "Mercer", "PHONE": "6095864095", "STATE": "NJ", "ADDRESS": "2711  NOTTINGHAM WAY", "TYPE": "Emergency", "SUB_TYPE": "Fire"}},{"geometry": {"type": "Point", "coordinates": [-74.76386133983146, 40.218771640212466]}, "type": "Feature", "id": 435, "properties": {"NAME": "MILL HILL PARK", "MCD": "TRENTON CITY", "COUNTY": "Mercer", "STATE": "NJ", "ADDRESS": "90 S BROAD ST", "TYPE": "Park", "SUB_TYPE": "Municipal Park"}},{"geometry": {"type": "Point", "coordinates": [-74.76145062001486, 40.218909105565004]}, "type": "Feature", "id": 436, "properties": {"NAME": "MILL HILL PLAYHOUSE", "MCD": "TRENTON CITY", "COUNTY": "Mercer", "STATE": "NJ", "ADDRESS": "205 E FRONT ST", "TYPE": "Cultural", "SUB_TYPE": "Arts"}},{"geometry": {"type": "Point", "coordinates": [-74.7500699434202, 40.22447188897917]}, "type": "Feature", "id": 437, "properties": {"NAME": "MILLER HOMES BASKETBALL COURTS", "MCD": "TRENTON CITY", "COUNTY": "Mercer", "STATE": "NJ", "ADDRESS": "127  LINCOLN AVE", "TYPE": "Park", "SUB_TYPE": "Municipal Park"}},{"geometry": {"type": "Point", "coordinates": [-74.76256055205543, 40.222276982115986]}, "type": "Feature", "id": 438, "properties": {"NAME": "MILLHILL CHILDRENS PLAYGROUND", "MCD": "TRENTON CITY", "COUNTY": "Mercer", "STATE": "NJ", "ADDRESS": "123 S MONTGOMERY ST", "TYPE": "Park", "SUB_TYPE": "Municipal Park"}},{"geometry": {"type": "Point", "coordinates": [-74.76471720906775, 40.25626719405799]}, "type": "Feature", "id": 439, "properties": {"NAME": "MOODY PARK BATTING CAGE", "MCD": "EWING TWP", "COUNTY": "Mercer", "PHONE": "6098832933", "STATE": "NJ", "ADDRESS": "1559  PARKSIDE AVE", "TYPE": "Park", "SUB_TYPE": "Municipal Park"}},{"geometry": {"type": "Point", "coordinates": [-74.76457096310112, 40.25256405576996]}, "type": "Feature", "id": 440, "properties": {"NAME": "MOODY PARK EWING", "MCD": "EWING TWP", "COUNTY": "Mercer", "STATE": "NJ", "ADDRESS": "24  BUTTONWOOD DR", "TYPE": "Park", "SUB_TYPE": "Municipal Park"}},{"geometry": {"type": "Point", "coordinates": [-74.67613633642499, 40.36143884232641]}, "type": "Feature", "id": 441, "properties": {"NAME": "MOUNTAIN LAKES HOLDING", "MCD": "PRINCETON TWP", "COUNTY": "Mercer", "PHONE": "6099248720", "STATE": "NJ", "ADDRESS": "57  MOUNTAIN AVE", "TYPE": "Park", "SUB_TYPE": "Municipal Park"}},{"geometry": {"type": "Point", "coordinates": [-74.8333525667893, 40.28101600758744]}, "type": "Feature", "id": 442, "properties": {"NAME": "MOUNTAIN VIEW GOLF COURSE", "MCD": "EWING TWP", "COUNTY": "Mercer", "PHONE": "6095380808", "STATE": "NJ", "ADDRESS": "1000  BEAR TAVERN RD", "TYPE": "Park", "SUB_TYPE": "County Park"}},{"geometry": {"type": "Point", "coordinates": [-74.72315627383506, 40.230935865452636]}, "type": "Feature", "id": 443, "properties": {"NAME": "MUNICIPAL BLDG PARK HAMILTON", "MCD": "HAMILTON TWP", "COUNTY": "Mercer", "STATE": "NJ", "ADDRESS": "2090  GREENWOOD AVE", "TYPE": "Park", "SUB_TYPE": "Municipal Park"}},{"geometry": {"type": "Point", "coordinates": [-74.80216683348503, 40.27862574007418]}, "type": "Feature", "id": 444, "properties": {"NAME": "MUNICIPAL COMPLEX PARK EWING", "MCD": "EWING TWP", "COUNTY": "Mercer", "STATE": "NJ", "ADDRESS": "9  JAKE GARZIO DR", "TYPE": "Park", "SUB_TYPE": "Municipal Park"}},{"geometry": {"type": "Point", "coordinates": [-74.6646693894184, 40.18456257832371]}, "type": "Feature", "id": 445, "properties": {"NAME": "MURRAY PARK HAMILTON", "MCD": "HAMILTON TWP", "COUNTY": "Mercer", "STATE": "NJ", "ADDRESS": "120  MURRAY AVE", "TYPE": "Park", "SUB_TYPE": "Municipal Park"}},{"geometry": {"type": "Point", "coordinates": [-74.6577787336995, 40.34794999320596]}, "type": "Feature", "id": 446, "properties": {"NAME": "MURRAY-DODGE HALL THEATRE", "MCD": "PRINCETON BORO", "COUNTY": "Mercer", "PHONE": "6092583000", "STATE": "NJ", "ADDRESS": "89  NASSAU ST", "TYPE": "Cultural", "SUB_TYPE": "Arts"}},{"geometry": {"type": "Point", "coordinates": [-74.68172716010513, 40.20271649748958]}, "type": "Feature", "id": 447, "properties": {"CITY": "Trenton", "NAME": "Civil War and Native American Museum", "ZIP": "08690", "MCD": "HAMILTON TWP", "COUNTY": "Mercer", "PHONE": "(609) 585-8900", "STATE": "NJ", "ADDRESS": "2200  KUSER RD", "TYPE": "Cultural", "SUB_TYPE": "Museum"}},{"geometry": {"type": "Point", "coordinates": [-74.80773140849891, 40.24348704455203]}, "type": "Feature", "id": 448, "properties": {"NAME": "NJ HUMAN SERVICES PD", "MCD": "TRENTON CITY", "COUNTY": "Mercer", "PHONE": "6096331935", "STATE": "NJ", "ADDRESS": "98  SULLIVAN WAY", "TYPE": "Emergency", "SUB_TYPE": "Police"}},{"geometry": {"type": "Point", "coordinates": [-74.8025773162802, 40.25077041825861]}, "type": "Feature", "id": 449, "properties": {"CITY": "Trenton", "NAME": "NJ State Library for the Blind and Handicapped", "ZIP": "08618", "MCD": "EWING TWP", "COUNTY": "Mercer", "PHONE": "1-800-792-8322", "STATE": "NJ", "ADDRESS": "2300 Stuyvesant Ave.", "TYPE": "Library", "SUB_TYPE": "Library"}},{"geometry": {"type": "Point", "coordinates": [-74.64597792307211, 40.201965602055445]}, "type": "Feature", "id": 450, "properties": {"NAME": "NJ STATE POLICE HAMILTON", "MCD": "HAMILTON TWP", "COUNTY": "Mercer", "STATE": "NJ", "ADDRESS": "1200  NEGRON DR", "TYPE": "Emergency", "SUB_TYPE": "Police"}},{"geometry": {"type": "Point", "coordinates": [-74.81089908806175, 40.28740467585167]}, "type": "Feature", "id": 451, "properties": {"NAME": "NJ STATE POLICE LAB", "MCD": "EWING TWP", "COUNTY": "Mercer", "PHONE": "6096710022", "STATE": "NJ", "ADDRESS": "380  SCOTCH RD", "TYPE": "Emergency", "SUB_TYPE": "Police"}},{"geometry": {"type": "Point", "coordinates": [-74.80742305144572, 40.27536765911402]}, "type": "Feature", "id": 452, "properties": {"FAX": "6098827078", "NAME": "NJSP FLIGHT OPERATIONS TTN", "MCD": "EWING TWP", "COUNTY": "Mercer", "PHONE": "6098823820", "STATE": "NJ", "ADDRESS": "241  SCOTCH RD", "TYPE": "Emergency", "SUB_TYPE": "Police"}},{"geometry": {"type": "Point", "coordinates": [-74.83754175060805, 40.2627043141259]}, "type": "Feature", "id": 453, "properties": {"NAME": "NJSP HEADQUARTERS", "MCD": "EWING TWP", "COUNTY": "Mercer", "PHONE": "6098822000", "STATE": "NJ", "ADDRESS": "98  STATE POLICE DR", "TYPE": "Emergency", "SUB_TYPE": "Police"}},{"geometry": {"type": "Point", "coordinates": [-74.65698138647348, 40.23328409476101]}, "type": "Feature", "id": 454, "properties": {"FAX": "6095879030", "NAME": "NOTTINGHAM FIRE COMPANY", "MCD": "HAMILTON TWP", "COUNTY": "Mercer", "PHONE": "6098909834", "STATE": "NJ", "ADDRESS": "200  MERCER ST", "TYPE": "Emergency", "SUB_TYPE": "Fire"}},{"geometry": {"type": "Point", "coordinates": [-74.77858726447998, 40.2365708742556]}, "type": "Feature", "id": 455, "properties": {"NAME": "OAKLAND ST PARK", "MCD": "TRENTON CITY", "COUNTY": "Mercer", "STATE": "NJ", "ADDRESS": "187  OAKLAND ST", "TYPE": "Park", "SUB_TYPE": "Municipal Park"}},{"geometry": {"type": "Point", "coordinates": [-74.76178024853157, 40.388587390127746]}, "type": "Feature", "id": 456, "properties": {"NAME": "OFF BROAD STREET THEATRE", "MCD": "HOPEWELL BORO", "COUNTY": "Mercer", "PHONE": "6094662096", "STATE": "NJ", "ADDRESS": "5 S GREENWOOD AVE", "TYPE": "Cultural", "SUB_TYPE": "Arts"}},{"geometry": {"type": "Point", "coordinates": [-74.7685784691202, 40.21989740576629]}, "type": "Feature", "id": 457, "properties": {"NAME": "OLD BARRACKS", "MCD": "TRENTON CITY", "COUNTY": "Mercer", "STATE": "NJ", "ADDRESS": "101  BARRACKS ST", "TYPE": "Cultural", "SUB_TYPE": "Museum"}},{"geometry": {"type": "Point", "coordinates": [-74.65400032453482, 40.17521688821545]}, "type": "Feature", "id": 458, "properties": {"NAME": "PAPPS VILLAGE PARK HAMILTON", "MCD": "HAMILTON TWP", "COUNTY": "Mercer", "STATE": "NJ", "ADDRESS": "86  VILLAGE DR E", "TYPE": "Park", "SUB_TYPE": "Municipal Park"}},{"geometry": {"type": "Point", "coordinates": [-74.62459295949711, 40.29020388099218]}, "type": "Feature", "id": 459, "properties": {"NAME": "PENN LYLE PARK WEST WINDSOR", "MCD": "WEST WINDSOR TWP", "COUNTY": "Mercer", "STATE": "NJ", "ADDRESS": "124  PENN LYLE RD", "TYPE": "Park", "SUB_TYPE": "Municipal Park"}},{"geometry": {"type": "Point", "coordinates": [-74.79571837408932, 40.33003740443538]}, "type": "Feature", "id": 460, "properties": {"FAX": "6097372602", "NAME": "PENNINGTON FIRE COMPANY", "MCD": "PENNINGTON BORO", "COUNTY": "Mercer", "PHONE": "6097370381", "STATE": "NJ", "ADDRESS": "120  BROMEL PL", "TYPE": "Emergency", "SUB_TYPE": "Fire"}},{"geometry": {"type": "Point", "coordinates": [-74.79221029756621, 40.32912990812231]}, "type": "Feature", "id": 461, "properties": {"FAX": "6097309324", "NAME": "PENNINGTON PD", "MCD": "PENNINGTON BORO", "COUNTY": "Mercer", "PHONE": "6097372020", "STATE": "NJ", "ADDRESS": "30 N MAIN ST", "TYPE": "Emergency", "SUB_TYPE": "Police"}},{"geometry": {"type": "Point", "coordinates": [-74.77854967608532, 40.257637710100425]}, "type": "Feature", "id": 462, "properties": {"FAX": "6098824318", "NAME": "PENNINGTON RD FIRE CO", "MCD": "EWING TWP", "COUNTY": "Mercer", "PHONE": "6098829885", "STATE": "NJ", "ADDRESS": "1664  PENNINGTON RD", "TYPE": "Emergency", "SUB_TYPE": "Fire"}},{"geometry": {"type": "Point", "coordinates": [-74.6809257006027, 40.227797817517995]}, "type": "Feature", "id": 463, "properties": {"NAME": "PERIWINKLE PARK HAMILTON", "MCD": "HAMILTON TWP", "COUNTY": "Mercer", "STATE": "NJ", "ADDRESS": "20  PERIWINKLE LN", "TYPE": "Park", "SUB_TYPE": "Municipal Park"}},{"geometry": {"type": "Point", "coordinates": [-74.67613640194564, 40.33227609805118]}, "type": "Feature", "id": 464, "properties": {"NAME": "PRINCETON BATTLEFIELD STATE PARK", "MCD": "PRINCETON TWP", "COUNTY": "Mercer", "STATE": "NJ", "ADDRESS": "454  MERCER RD", "TYPE": "Park", "SUB_TYPE": "State Park"}},{"geometry": {"type": "Point", "coordinates": [-74.66581591730386, 40.34850862784817]}, "type": "Feature", "id": 465, "properties": {"FAX": "6099240267", "NAME": "PRINCETON BOROUGH POLICE DEPARTMENT", "MCD": "PRINCETON BORO", "COUNTY": "Mercer", "PHONE": "6094977652", "STATE": "NJ", "ADDRESS": "1   MONUMENT DR", "TYPE": "Emergency", "SUB_TYPE": "Police"}},{"geometry": {"type": "Point", "coordinates": [-74.65223629015067, 40.35261018115001]}, "type": "Feature", "id": 466, "properties": {"NAME": "PRINCETON FD 61", "MCD": "PRINCETON BORO", "COUNTY": "Mercer", "PHONE": "6094977647", "STATE": "NJ", "ADDRESS": "13   CHESTNUT ST", "TYPE": "Emergency", "SUB_TYPE": "Fire"}},{"geometry": {"type": "Point", "coordinates": [-74.64587305747648, 40.3548254003212]}, "type": "Feature", "id": 467, "properties": {"NAME": "PRINCETON FD 62", "MCD": "PRINCETON BORO", "COUNTY": "Mercer", "PHONE": "6094977649", "STATE": "NJ", "ADDRESS": "27 N HARRISON ST", "TYPE": "Emergency", "SUB_TYPE": "Fire"}},{"geometry": {"type": "Point", "coordinates": [-74.65757878396161, 40.350668482029405]}, "type": "Feature", "id": 468, "properties": {"NAME": "PRINCETON HISTORICAL SOCIETY", "MCD": "PRINCETON BORO", "COUNTY": "Mercer", "PHONE": "6099216748", "STATE": "NJ", "ADDRESS": "158  NASSAU ST", "TYPE": "Cultural", "SUB_TYPE": "Museum"}},{"geometry": {"type": "Point", "coordinates": [-74.63683006355689, 40.30273488913169]}, "type": "Feature", "id": 469, "properties": {"FAX": "6097993660", "NAME": "PRINCETON JUNCTION FD", "MCD": "WEST WINDSOR TWP", "COUNTY": "Mercer", "PHONE": "6097992112", "STATE": "NJ", "ADDRESS": "245  CLARKSVILLE RD", "TYPE": "Emergency", "SUB_TYPE": "Fire"}},{"geometry": {"type": "Point", "coordinates": [-74.57886624105812, 40.21143321772357]}, "type": "Feature", "id": 470, "properties": {"NAME": "PRINCETON MEMORIAL PARK", "MCD": "WASHINGTON TWP", "COUNTY": "Mercer", "STATE": "NJ", "ADDRESS": "403  GORDON RD", "TYPE": "Park", "SUB_TYPE": "Municipal Park"}},{"geometry": {"type": "Point", "coordinates": [-74.66347336556419, 40.34475557068391]}, "type": "Feature", "id": 471, "properties": {"NAME": "PRINCETON THEOLOGICAL SEMINARY PRINCETON CAMPUS", "MCD": "PRINCETON BORO", "COUNTY": "Mercer", "PHONE": "6094977777", "STATE": "NJ", "ADDRESS": "10  ALEXANDER ST", "TYPE": "College", "SUB_TYPE": "College"}},{"geometry": {"type": "Point", "coordinates": [-74.66495797498597, 40.36067121550224]}, "type": "Feature", "id": 472, "properties": {"FAX": "6099248197", "NAME": "PRINCETON TOWNSHIP POLICE DEPT", "MCD": "PRINCETON TWP", "COUNTY": "Mercer", "PHONE": "6099212100", "STATE": "NJ", "ADDRESS": "1  VALLEY RD", "TYPE": "Emergency", "SUB_TYPE": "Police"}},{"geometry": {"type": "Point", "coordinates": [-74.65480825106482, 40.3445663062875]}, "type": "Feature", "id": 473, "properties": {"NAME": "PRINCETON UNIVERSITY", "MCD": "PRINCETON BORO", "COUNTY": "Mercer", "PHONE": "6092582819", "STATE": "NJ", "ADDRESS": "221  NASSAU ST", "TYPE": "College", "SUB_TYPE": "College"}},{"geometry": {"type": "Point", "coordinates": [-74.6605922985643, 40.34425348918802]}, "type": "Feature", "id": 474, "properties": {"NAME": "MCCARTER THEATRE", "MCD": "PRINCETON BORO", "COUNTY": "Mercer", "PHONE": "6092586557", "STATE": "NJ", "ADDRESS": "91  UNIVERSITY PL", "TYPE": "Cultural", "SUB_TYPE": "Arts"}},{"geometry": {"type": "Point", "coordinates": [-74.762838984003, 40.249795749104216]}, "type": "Feature", "id": 475, "properties": {"NAME": "PROSPECT HEIGHTS FIRE  CO", "MCD": "EWING TWP", "COUNTY": "Mercer", "PHONE": "6095301122", "STATE": "NJ", "ADDRESS": "1660  NINTH ST", "TYPE": "Emergency", "SUB_TYPE": "Fire"}},{"geometry": {"type": "Point", "coordinates": [-74.64837699641288, 40.355558448844334]}, "type": "Feature", "id": 476, "properties": {"NAME": "QUARRY PARK PRINCETON", "MCD": "PRINCETON BORO", "COUNTY": "Mercer", "STATE": "NJ", "ADDRESS": "155  SPRUCE ST", "TYPE": "Park", "SUB_TYPE": "Municipal Park"}},{"geometry": {"type": "Point", "coordinates": [-74.67246512923626, 40.17220115272073]}, "type": "Feature", "id": 477, "properties": {"NAME": "RAY DWIER CENTER HAMILTON", "MCD": "HAMILTON TWP", "COUNTY": "Mercer", "STATE": "NJ", "ADDRESS": "392  CHURCH ST", "TYPE": "Park", "SUB_TYPE": "Municipal Park"}},{"geometry": {"type": "Point", "coordinates": [-74.73681318438751, 40.279817424781434]}, "type": "Feature", "id": 478, "properties": {"NAME": "RIDER UNIVERSITY - ACADEMIC ANNEX", "MCD": "LAWRENCE TWP", "COUNTY": "Mercer", "PHONE": "6098965029", "STATE": "NJ", "ADDRESS": "2083  LAWRENCE RD", "TYPE": "College", "SUB_TYPE": "College"}},{"geometry": {"type": "Point", "coordinates": [-74.67209514917778, 40.21636303644816]}, "type": "Feature", "id": 479, "properties": {"NAME": "ROBERT WOOD JOHNSON HOSPITAL- HAMILTON", "MCD": "HAMILTON TWP", "COUNTY": "Mercer", "PHONE": "6095867900", "STATE": "NJ", "ADDRESS": "1  HAMILTON HEALTH PL", "TYPE": "Medical", "SUB_TYPE": "Hospital"}},{"geometry": {"type": "Point", "coordinates": [-74.75899611573853, 40.223362445947124]}, "type": "Feature", "id": 480, "properties": {"NAME": "ROBERTO CLEMENTE PARK", "MCD": "TRENTON CITY", "COUNTY": "Mercer", "STATE": "NJ", "ADDRESS": "350  ACADEMY ST", "TYPE": "Park", "SUB_TYPE": "Municipal Park"}},{"geometry": {"type": "Point", "coordinates": [-74.52382182453994, 40.27223485130736]}, "type": "Feature", "id": 481, "properties": {"NAME": "ROCKY BROOK PARK HIGHTSTOWN", "MCD": "HIGHTSTOWN BORO", "COUNTY": "Mercer", "STATE": "NJ", "ADDRESS": "154  BANK ST", "TYPE": "Park", "SUB_TYPE": "Municipal Park"}},{"geometry": {"type": "Point", "coordinates": [-74.74847856672937, 40.209835105106094]}, "type": "Feature", "id": 482, "properties": {"NAME": "ROEBLING AV PARK", "MCD": "TRENTON CITY", "COUNTY": "Mercer", "STATE": "NJ", "ADDRESS": "401  ROEBLING AVE", "TYPE": "Park", "SUB_TYPE": "Municipal Park"}},{"geometry": {"type": "Point", "coordinates": [-74.73202826568797, 40.19516651349558]}, "type": "Feature", "id": 483, "properties": {"WEBSITE": "http://www.state.nj.us/counties/mercer/commissions/park/roebling_park.html", "NAME": "ROEBLING PARK", "MCD": "HAMILTON TWP", "COUNTY": "Mercer", "STATE": "NJ", "ADDRESS": "326  SEWELL AVE", "TYPE": "Park", "SUB_TYPE": "County Park"}},{"geometry": {"type": "Point", "coordinates": [-74.61621640228078, 40.308871698906664]}, "type": "Feature", "id": 484, "properties": {"NAME": "RON ROGERS ARBORETEUM", "MCD": "WEST WINDSOR TWP", "COUNTY": "Mercer", "STATE": "NJ", "ADDRESS": "372  CLARKSVILLE RD", "TYPE": "Park", "SUB_TYPE": "Municipal Park"}},{"geometry": {"type": "Point", "coordinates": [-74.76519081109276, 40.23443957742964]}, "type": "Feature", "id": 485, "properties": {"NAME": "ROOSEVELT PARK EWING", "MCD": "EWING TWP", "COUNTY": "Mercer", "STATE": "NJ", "ADDRESS": "37  ROOSEVELT ST", "TYPE": "Park", "SUB_TYPE": "Municipal Park"}},{"geometry": {"type": "Point", "coordinates": [-74.75883075663498, 40.33119792349016]}, "type": "Feature", "id": 486, "properties": {"WEBSITE": "http://www.state.nj.us/counties/mercer/commissions/park/rosedale_park.html", "NAME": "ROSEDALE PARK", "MCD": "HOPEWELL TWP", "COUNTY": "Mercer", "STATE": "NJ", "ADDRESS": "FEDERAL CITY/ROSEDALE", "TYPE": "Park", "SUB_TYPE": "County Park"}},{"geometry": {"type": "Point", "coordinates": [-74.7283225742143, 40.19838109749455]}, "type": "Feature", "id": 487, "properties": {"FAX": "6093922741", "NAME": "RUSLING HOSE FD", "MCD": "HAMILTON TWP", "COUNTY": "Mercer", "PHONE": "6093921710", "STATE": "NJ", "ADDRESS": "13   RENNIE ST", "TYPE": "Emergency", "SUB_TYPE": "Fire"}},{"geometry": {"type": "Point", "coordinates": [-74.6579037616901, 40.237458644116]}, "type": "Feature", "id": 488, "properties": {"NAME": "SAYEN GARDENS HAMILTON", "MCD": "HAMILTON TWP", "COUNTY": "Mercer", "STATE": "NJ", "ADDRESS": "155  HUGHES DR", "TYPE": "Park", "SUB_TYPE": "Municipal Park"}},{"geometry": {"type": "Point", "coordinates": [-74.66420580586095, 40.235844420974495]}, "type": "Feature", "id": 489, "properties": {"NAME": "SAYEN PARK HAMILTON", "MCD": "HAMILTON TWP", "COUNTY": "Mercer", "STATE": "NJ", "ADDRESS": "SAYEN DR", "TYPE": "Park", "SUB_TYPE": "Municipal Park"}},{"geometry": {"type": "Point", "coordinates": [-74.74962824468251, 40.20710291978551]}, "type": "Feature", "id": 490, "properties": {"NAME": "SECOND PRECINCT BUILDING", "MCD": "TRENTON CITY", "COUNTY": "Mercer", "STATE": "NJ", "ADDRESS": "870 S BROAD ST", "TYPE": "Emergency", "SUB_TYPE": "Police"}},{"geometry": {"type": "Point", "coordinates": [-74.7165046959425, 40.20189506616157]}, "type": "Feature", "id": 491, "properties": {"NAME": "SHADY BROOK PARK HAMILTON", "MCD": "HAMILTON TWP", "COUNTY": "Mercer", "STATE": "NJ", "ADDRESS": "697  PITMAN AVE", "TYPE": "Park", "SUB_TYPE": "Municipal Park"}},{"geometry": {"type": "Point", "coordinates": [-74.68589687529712, 40.19624518706068]}, "type": "Feature", "id": 492, "properties": {"NAME": "SHARPS LANE PARK HAMILTON", "MCD": "HAMILTON TWP", "COUNTY": "Mercer", "STATE": "NJ", "ADDRESS": "337  SHARPS LN", "TYPE": "Park", "SUB_TYPE": "Municipal Park"}},{"geometry": {"type": "Point", "coordinates": [-74.75131097273109, 40.25848989729983]}, "type": "Feature", "id": 493, "properties": {"NAME": "SHERBROOKE PARK EWING", "MCD": "EWING TWP", "COUNTY": "Mercer", "STATE": "NJ", "ADDRESS": "1010  WHITEHEAD RD", "TYPE": "Park", "SUB_TYPE": "Municipal Park"}},{"geometry": {"type": "Point", "coordinates": [-74.73674029400735, 40.25109505198322]}, "type": "Feature", "id": 494, "properties": {"FAX": "6093948909", "NAME": "SLACKWOOD FD", "MCD": "LAWRENCE TWP", "COUNTY": "Mercer", "PHONE": "6093924018", "STATE": "NJ", "ADDRESS": "21  SLACK AVE", "TYPE": "Emergency", "SUB_TYPE": "Fire"}},{"geometry": {"type": "Point", "coordinates": [-74.64562499539456, 40.35274385467948]}, "type": "Feature", "id": 495, "properties": {"NAME": "SOUTH HARRISON ST PARK", "MCD": "PRINCETON TWP", "COUNTY": "Mercer", "STATE": "NJ", "ADDRESS": "94 S HARRISON ST", "TYPE": "Park", "SUB_TYPE": "Municipal Park"}},{"geometry": {"type": "Point", "coordinates": [-74.6632916946345, 40.343148518555715]}, "type": "Feature", "id": 496, "properties": {"NAME": "SPRINGDALE GOLF CLUB", "MCD": "PRINCETON BORO", "COUNTY": "Mercer", "PHONE": "6099218790", "STATE": "NJ", "ADDRESS": "26  COLLEGE RD", "TYPE": "Park", "SUB_TYPE": "Municipal Park"}},{"geometry": {"type": "Point", "coordinates": [-74.6724577805496, 40.21614707978012]}, "type": "Feature", "id": 497, "properties": {"NAME": "SQUAD 110 RWJ HAMILTON", "MCD": "HAMILTON TWP", "COUNTY": "Mercer", "PHONE": "6095814000", "STATE": "NJ", "ADDRESS": "1   HAMILTON HEALTH PL", "TYPE": "Emergency", "SUB_TYPE": "EMS"}},{"geometry": {"type": "Point", "coordinates": [-74.668597503431, 40.22963987126538]}, "type": "Feature", "id": 498, "properties": {"NAME": "SQUAD 111 NOTTINGHAM", "MCD": "HAMILTON TWP", "COUNTY": "Mercer", "PHONE": "6095867790", "STATE": "NJ", "ADDRESS": "31  PAXSON AVE E", "TYPE": "Emergency", "SUB_TYPE": "EMS"}},{"geometry": {"type": "Point", "coordinates": [-74.7400019402365, 40.26548126953544]}, "type": "Feature", "id": 499, "properties": {"NAME": "SQUAD 129 LAWRENCE", "MCD": "LAWRENCE TWP", "COUNTY": "Mercer", "PHONE": "6098836299", "STATE": "NJ", "ADDRESS": "165  PILLA AVE", "TYPE": "Emergency", "SUB_TYPE": "EMS"}},{"geometry": {"type": "Point", "coordinates": [-74.77880170566772, 40.257924339485236]}, "type": "Feature", "id": 500, "properties": {"FAX": "6098824318", "NAME": "SQUAD 132 PENNINGTON ROAD", "MCD": "EWING TWP", "COUNTY": "Mercer", "PHONE": "6098821313", "STATE": "NJ", "ADDRESS": "1666   PENNINGTON RD", "TYPE": "Emergency", "SUB_TYPE": "EMS"}},{"geometry": {"type": "Point", "coordinates": [-74.52351793344032, 40.272329475383025]}, "type": "Feature", "id": 501, "properties": {"FAX": "6094905140", "NAME": "SQUAD 141 HIGHTSTOWN", "MCD": "HIGHTSTOWN BORO", "COUNTY": "Mercer", "PHONE": "6094481234", "STATE": "NJ", "ADDRESS": "148  BANK ST", "TYPE": "Emergency", "SUB_TYPE": "EMS"}},{"geometry": {"type": "Point", "coordinates": [-74.54627522958843, 40.27293813086395]}, "type": "Feature", "id": 502, "properties": {"NAME": "SQUAD 142 EAST WINDSOR", "MCD": "EAST WINDSOR TWP", "COUNTY": "Mercer", "PHONE": "6094486321", "STATE": "NJ", "ADDRESS": "47  ONE MILE RD", "TYPE": "Emergency", "SUB_TYPE": "EMS"}},{"geometry": {"type": "Point", "coordinates": [-74.63675487970069, 40.30496689888863]}, "type": "Feature", "id": 503, "properties": {"NAME": "SQUAD 145 TWIN W", "MCD": "WEST WINDSOR TWP", "COUNTY": "Mercer", "PHONE": "6097994383", "STATE": "NJ", "ADDRESS": "21  EVERETT DR", "TYPE": "Emergency", "SUB_TYPE": "EMS"}},{"geometry": {"type": "Point", "coordinates": [-74.49360806651606, 40.260237396654446]}, "type": "Feature", "id": 504, "properties": {"NAME": "SQUAD 146 EAST WINDSOR", "MCD": "EAST WINDSOR TWP", "COUNTY": "Mercer", "PHONE": "6094488992", "STATE": "NJ", "ADDRESS": "73  TWIN RIVERS DR", "TYPE": "Emergency", "SUB_TYPE": "EMS"}},{"geometry": {"type": "Point", "coordinates": [-74.79656431592146, 40.330043251643666]}, "type": "Feature", "id": 505, "properties": {"NAME": "SQUAD 151 PENNINGTON", "MCD": "PENNINGTON BORO", "COUNTY": "Mercer", "PHONE": "6097370479", "STATE": "NJ", "ADDRESS": "110  BROMEL PL", "TYPE": "Emergency", "SUB_TYPE": "EMS"}},{"geometry": {"type": "Point", "coordinates": [-74.87227980364526, 40.30401977054729]}, "type": "Feature", "id": 506, "properties": {"FAX": "6097377775", "NAME": "SQUAD 153 UNION", "MCD": "HOPEWELL TWP", "COUNTY": "Mercer", "PHONE": "6097373100", "STATE": "NJ", "ADDRESS": "1396   RIVER RD", "TYPE": "Emergency", "SUB_TYPE": "EMS"}},{"geometry": {"type": "Point", "coordinates": [-74.65056505491317, 40.36120371332649]}, "type": "Feature", "id": 507, "properties": {"NAME": "SQUAD 168 PRINCETON", "MCD": "PRINCETON TWP", "COUNTY": "Mercer", "PHONE": "6099213130", "STATE": "NJ", "ADDRESS": "237  HARRISON ST", "TYPE": "Emergency", "SUB_TYPE": "EMS"}},{"geometry": {"type": "Point", "coordinates": [-74.74034646323382, 40.20687746868978]}, "type": "Feature", "id": 508, "properties": {"FAX": "6092780395", "NAME": "SQUAD 174 TRENTON", "MCD": "TRENTON CITY", "COUNTY": "Mercer", "PHONE": "6093930688", "STATE": "NJ", "ADDRESS": "708   LIBERTY ST", "TYPE": "Emergency", "SUB_TYPE": "EMS"}},{"geometry": {"type": "Point", "coordinates": [-74.74143570232818, 40.21676119608271]}, "type": "Feature", "id": 509, "properties": {"NAME": "ST FRANCIS MEDICAL CENTER", "MCD": "TRENTON CITY", "COUNTY": "Mercer", "PHONE": "6095995000", "STATE": "NJ", "ADDRESS": "601  HAMILTON AVE", "TYPE": "Medical", "SUB_TYPE": "Hospital"}},{"geometry": {"type": "Point", "coordinates": [-74.79702784100098, 40.232516807313786]}, "type": "Feature", "id": 510, "properties": {"NAME": "STACY PARK", "MCD": "TRENTON CITY", "COUNTY": "Mercer", "STATE": "NJ", "ADDRESS": "1388  RIVERSIDE DR", "TYPE": "Park", "SUB_TYPE": "Municipal Park"}},{"geometry": {"type": "Point", "coordinates": [-74.48992152051532, 40.26181353598645]}, "type": "Feature", "id": 511, "properties": {"CITY": "East Windsor", "NAME": "Shalom Torah Academy", "ZIP": "08520", "COUNTY": "Mercer", "PHONE": "(609)443-4877", "STATE": "NJ", "ADDRESS": "639 Abbington Dr.", "TYPE": "School", "SUB_TYPE": "Private"}},{"geometry": {"type": "Point", "coordinates": [-74.51900999667151, 40.262624673957774]}, "type": "Feature", "id": 512, "properties": {"CITY": "Hightstown", "NAME": "Peddie School", "ZIP": "08520", "COUNTY": "Mercer", "PHONE": "(609)490-7514", "STATE": "NJ", "ADDRESS": "111 Armellino Ct.", "TYPE": "School", "SUB_TYPE": "Private"}},{"geometry": {"type": "Point", "coordinates": [-74.52210755756593, 40.27309379732699]}, "type": "Feature", "id": 513, "properties": {"CITY": "Hightstown", "NAME": "Better Beginnings Day Care", "ZIP": "08520", "COUNTY": "Mercer", "PHONE": "(609)448-6226", "STATE": "NJ", "ADDRESS": "318 North Main St.", "TYPE": "School", "SUB_TYPE": "Private"}},{"geometry": {"type": "Point", "coordinates": [-74.79776687298947, 40.27934789744119]}, "type": "Feature", "id": 514, "properties": {"CITY": "Trenton", "NAME": "Lakeview Child Center at Ewing", "ZIP": "08618", "COUNTY": "Mercer", "PHONE": "(609)530-9696", "STATE": "NJ", "ADDRESS": "1440 Lower Ferry Rd.", "TYPE": "School", "SUB_TYPE": "Private"}},{"geometry": {"type": "Point", "coordinates": [-74.76458117694614, 40.25146191502002]}, "type": "Feature", "id": 515, "properties": {"CITY": "Trenton", "NAME": "Mercer Christian Academy", "ZIP": "08638", "COUNTY": "Mercer", "PHONE": "(609)882-7300", "STATE": "NJ", "ADDRESS": "11 Buttonwood Dr.", "TYPE": "School", "SUB_TYPE": "Private"}},{"geometry": {"type": "Point", "coordinates": [-74.65259143892197, 40.31815476137123]}, "type": "Feature", "id": 516, "properties": {"CITY": "Princeton", "NAME": "Kiddie Academy of Princeton", "ZIP": "08540", "COUNTY": "Mercer", "PHONE": "(609)419-0105", "STATE": "NJ", "ADDRESS": "201 Carnegie Center Dr.", "TYPE": "School", "SUB_TYPE": "Private"}},{"geometry": {"type": "Point", "coordinates": [-74.63239617806909, 40.33693418020753]}, "type": "Feature", "id": 517, "properties": {"CITY": "Princeton", "NAME": "Eden Institute", "ZIP": "08540", "COUNTY": "Mercer", "PHONE": "(609)987-0099", "STATE": "NJ", "ADDRESS": "1 Eden Way", "TYPE": "School", "SUB_TYPE": "Private"}},{"geometry": {"type": "Point", "coordinates": [-74.69015661607418, 40.362157058953144]}, "type": "Feature", "id": 518, "properties": {"CITY": "Princeton", "NAME": "Princeton Day School", "ZIP": "08542", "COUNTY": "Mercer", "PHONE": "(609)924-6700", "STATE": "NJ", "ADDRESS": "650 Great Rd.", "TYPE": "School", "SUB_TYPE": "Private"}},{"geometry": {"type": "Point", "coordinates": [-74.70850006605674, 40.31062920955613]}, "type": "Feature", "id": 519, "properties": {"CITY": "Trenton", "NAME": "Princeton Junior School", "ZIP": "08542", "COUNTY": "Mercer", "PHONE": "(609)924-8126", "STATE": "NJ", "ADDRESS": "90 Fackler Rd.", "TYPE": "School", "SUB_TYPE": "Private"}},{"geometry": {"type": "Point", "coordinates": [-74.75728486654539, 40.23466386247411]}, "type": "Feature", "id": 520, "properties": {"CITY": "Trenton", "NAME": "Afrikan Peoples Action School", "ZIP": "08638", "COUNTY": "Mercer", "PHONE": "(609)394-1070", "STATE": "NJ", "ADDRESS": "27 East Paul Ave.", "TYPE": "School", "SUB_TYPE": "Private"}},{"geometry": {"type": "Point", "coordinates": [-74.7622489243931, 40.22586907727915]}, "type": "Feature", "id": 521, "properties": {"CITY": "Trenton", "NAME": "Intl'. Muslim Brotherhood Day School", "ZIP": "08638", "COUNTY": "Mercer", "PHONE": "(609)695-9900", "STATE": "NJ", "ADDRESS": "25 Oxford St.", "TYPE": "School", "SUB_TYPE": "Private"}},{"geometry": {"type": "Point", "coordinates": [-74.74636389884837, 40.212849490302006]}, "type": "Feature", "id": 522, "properties": {"CITY": "Trenton", "NAME": "Sister Georgine School", "ZIP": "08611", "COUNTY": "Mercer", "PHONE": "(609)396-5444", "STATE": "NJ", "ADDRESS": "544 Chestnut Ave.", "TYPE": "School", "SUB_TYPE": "Private"}},{"geometry": {"type": "Point", "coordinates": [-74.75751494078678, 40.234766569243064]}, "type": "Feature", "id": 523, "properties": {"CITY": "Trenton", "NAME": "The G.A.R.V.E.Y. School", "ZIP": "08638", "COUNTY": "Mercer", "PHONE": "(609)392-2007", "STATE": "NJ", "ADDRESS": "27 East Paul Ave.", "TYPE": "School", "SUB_TYPE": "Private"}},{"geometry": {"type": "Point", "coordinates": [-74.78727668040207, 40.229704053887545]}, "type": "Feature", "id": 524, "properties": {"CITY": "Trenton", "NAME": "Trinity Cathedral Academy", "ZIP": "08618", "COUNTY": "Mercer", "PHONE": "(609)396-1484", "STATE": "NJ", "ADDRESS": "801 W. State St.", "TYPE": "School", "SUB_TYPE": "Private"}},{"geometry": {"type": "Point", "coordinates": [-74.66522476728103, 40.35162976360383]}, "type": "Feature", "id": 525, "properties": {"CITY": "Princeton", "NAME": "Lewis School", "ZIP": "08540", "COUNTY": "Mercer", "PHONE": "(609)924-8120", "STATE": "NJ", "ADDRESS": "53 Bayard Rd.", "TYPE": "School", "SUB_TYPE": "Private"}},{"geometry": {"type": "Point", "coordinates": [-74.70096693074288, 40.37608292118303]}, "type": "Feature", "id": 526, "properties": {"CITY": "Princeton", "NAME": "Princeton Academy-The Sacred", "ZIP": "08540", "COUNTY": "Mercer", "PHONE": "(609)921-6499", "STATE": "NJ", "ADDRESS": "101 Drake's Corner Rd.", "TYPE": "School", "SUB_TYPE": "Private"}},{"geometry": {"type": "Point", "coordinates": [-74.7290107162349, 40.331291445630676]}, "type": "Feature", "id": 527, "properties": {"CITY": "Princeton", "NAME": "Princeton Child Development", "ZIP": "08540", "COUNTY": "Mercer", "PHONE": "(609)924-6280", "STATE": "NJ", "ADDRESS": "300 Cold Soil Rd.", "TYPE": "School", "SUB_TYPE": "Private"}},{"geometry": {"type": "Point", "coordinates": [-74.68158384617088, 40.313923593814664]}, "type": "Feature", "id": 528, "properties": {"CITY": "Princeton", "NAME": "Princeton Friends School", "ZIP": "08540", "COUNTY": "Mercer", "PHONE": "(609)683-1194", "STATE": "NJ", "ADDRESS": "470 Quaker Rd.", "TYPE": "School", "SUB_TYPE": "Private"}},{"geometry": {"type": "Point", "coordinates": [-74.6538720267594, 40.35188939367475]}, "type": "Feature", "id": 529, "properties": {"CITY": "Princeton", "NAME": "Saint Paul Roman Catholic School", "ZIP": "08540", "COUNTY": "Mercer", "PHONE": "(609)921-7587", "STATE": "NJ", "ADDRESS": "218 Nassau St.", "TYPE": "School", "SUB_TYPE": "Private"}},{"geometry": {"type": "Point", "coordinates": [-74.6856402917229, 40.36743067179621]}, "type": "Feature", "id": 530, "properties": {"CITY": "Princeton", "NAME": "Stuart Country Day School", "ZIP": "08540", "COUNTY": "Mercer", "PHONE": "(609)921-2330", "STATE": "NJ", "ADDRESS": "1200 Stuart Rd.", "TYPE": "School", "SUB_TYPE": "Private"}},{"geometry": {"type": "Point", "coordinates": [-74.69788491344858, 40.34215863227887]}, "type": "Feature", "id": 531, "properties": {"CITY": "Princeton", "NAME": "The American Boy Choir", "ZIP": "08540", "COUNTY": "Mercer", "PHONE": "(609)924-5858", "STATE": "NJ", "ADDRESS": "19 Lambert Dr.", "TYPE": "School", "SUB_TYPE": "Private"}},{"geometry": {"type": "Point", "coordinates": [-74.68554798388513, 40.33729839718973]}, "type": "Feature", "id": 532, "properties": {"CITY": "Princeton", "NAME": "The Hun School of Princeton", "ZIP": "08540", "COUNTY": "Mercer", "PHONE": "(609)921-7600", "STATE": "NJ", "ADDRESS": "176 Edgerstoune Rd.", "TYPE": "School", "SUB_TYPE": "Private"}},{"geometry": {"type": "Point", "coordinates": [-74.7504839127827, 40.3013600231888]}, "type": "Feature", "id": 533, "properties": {"CITY": "Lawrenceville", "NAME": "Kiddie Academy of Lawrenceville", "ZIP": "08648", "COUNTY": "Mercer", "PHONE": "(609)895-1558", "STATE": "NJ", "ADDRESS": "222 Federal City Rd.", "TYPE": "School", "SUB_TYPE": "Private"}},{"geometry": {"type": "Point", "coordinates": [-74.74399944849137, 40.25516046751439]}, "type": "Feature", "id": 534, "properties": {"CITY": "Lawrenceville", "NAME": "Notre Dame High School", "ZIP": "08648", "COUNTY": "Mercer", "PHONE": "(609)882-7900", "STATE": "NJ", "ADDRESS": "601 Lawrence Rd.", "TYPE": "School", "SUB_TYPE": "Private"}},{"geometry": {"type": "Point", "coordinates": [-74.74406686466884, 40.26586364845102]}, "type": "Feature", "id": 535, "properties": {"CITY": "Lawrenceville", "NAME": "Saint Ann School", "ZIP": "08648", "COUNTY": "Mercer", "PHONE": "(609)882-8077", "STATE": "NJ", "ADDRESS": "34 Rossa Avenue", "TYPE": "School", "SUB_TYPE": "Private"}},{"geometry": {"type": "Point", "coordinates": [-74.72720280733608, 40.29486156921651]}, "type": "Feature", "id": 536, "properties": {"CITY": "Lawrenceville", "NAME": "The Lawrenceville School", "ZIP": "08648", "COUNTY": "Mercer", "PHONE": "(609)895-2057", "STATE": "NJ", "ADDRESS": "2500 Main St.", "TYPE": "School", "SUB_TYPE": "Private"}},{"geometry": {"type": "Point", "coordinates": [-74.64530641533653, 40.37253976038609]}, "type": "Feature", "id": 537, "properties": {"CITY": "Princeton", "NAME": "Ecole Francaise de Priceton", "ZIP": "08542", "COUNTY": "Mercer", "PHONE": "(609)430-3001", "STATE": "NJ", "ADDRESS": "16 All Saints Rd.", "TYPE": "School", "SUB_TYPE": "Private"}},{"geometry": {"type": "Point", "coordinates": [-74.69332062036442, 40.31154031902613]}, "type": "Feature", "id": 538, "properties": {"CITY": "Princeton", "NAME": "Chapin School", "ZIP": "08540", "COUNTY": "Mercer", "PHONE": "(609)924-2449", "STATE": "NJ", "ADDRESS": "4101 Princeton Pk.", "TYPE": "School", "SUB_TYPE": "Private"}},{"geometry": {"type": "Point", "coordinates": [-74.6978296011547, 40.32152559284334]}, "type": "Feature", "id": 539, "properties": {"CITY": "Princeton", "NAME": "Child Development Center BMS", "ZIP": "08540", "COUNTY": "Mercer", "PHONE": "(609)252-6200", "STATE": "NJ", "ADDRESS": "Route 206 and Province Line Rd.", "TYPE": "School", "SUB_TYPE": "Private"}},{"geometry": {"type": "Point", "coordinates": [-74.79669109203371, 40.331853229145054]}, "type": "Feature", "id": 540, "properties": {"CITY": "Pennington", "NAME": "Hopewell Country Day School", "ZIP": "08534", "COUNTY": "Mercer", "PHONE": "(609)737-1211", "STATE": "NJ", "ADDRESS": "104 West Franklin Ave.", "TYPE": "School", "SUB_TYPE": "Private"}},{"geometry": {"type": "Point", "coordinates": [-74.80364784324797, 40.30500759573608]}, "type": "Feature", "id": 541, "properties": {"CITY": "Pennington", "NAME": "Merrill Lynch Family Center", "ZIP": "08534", "COUNTY": "Mercer", "PHONE": "(609)730-3900", "STATE": "NJ", "ADDRESS": "800 North Rd.", "TYPE": "School", "SUB_TYPE": "Private"}},{"geometry": {"type": "Point", "coordinates": [-74.79356628554208, 40.32726461493374]}, "type": "Feature", "id": 542, "properties": {"CITY": "Pennington", "NAME": "The Pennington School", "ZIP": "08534", "COUNTY": "Mercer", "PHONE": "(609)737-1838", "STATE": "NJ", "ADDRESS": "112 West Delaware Ave.", "TYPE": "School", "SUB_TYPE": "Private"}},{"geometry": {"type": "Point", "coordinates": [-74.79139984045372, 40.32605267937856]}, "type": "Feature", "id": 543, "properties": {"CITY": "Pennington", "NAME": "The Cambridge School", "ZIP": "08534", "COUNTY": "Mercer", "PHONE": "(609)730-9553", "STATE": "NJ", "ADDRESS": "100 Straub Center Blvd.", "TYPE": "School", "SUB_TYPE": "Private"}},{"geometry": {"type": "Point", "coordinates": [-74.79925168853363, 40.34037348781415]}, "type": "Feature", "id": 544, "properties": {"CITY": "Pennington", "NAME": "Toddler's Village Learning Center", "ZIP": "08534", "COUNTY": "Mercer", "PHONE": "(609)737-7877", "STATE": "NJ", "ADDRESS": "15 Yard Rd.", "TYPE": "School", "SUB_TYPE": "Private"}},{"geometry": {"type": "Point", "coordinates": [-74.78409464378095, 40.26687764313098]}, "type": "Feature", "id": 545, "properties": {"CITY": "Trenton", "NAME": "Children's Day School", "ZIP": "08618", "COUNTY": "Mercer", "PHONE": "(609)882-2288", "STATE": "NJ", "ADDRESS": "1925 Pennington Rd.", "TYPE": "School", "SUB_TYPE": "Private"}},{"geometry": {"type": "Point", "coordinates": [-74.77803706903225, 40.25175102333229]}, "type": "Feature", "id": 546, "properties": {"CITY": "Trenton", "NAME": "Incarnation School", "ZIP": "08618", "COUNTY": "Mercer", "PHONE": "(609)882-3228", "STATE": "NJ", "ADDRESS": "1555 Pennington Rd.", "TYPE": "School", "SUB_TYPE": "Private"}},{"geometry": {"type": "Point", "coordinates": [-74.79602705784703, 40.259470027457695]}, "type": "Feature", "id": 547, "properties": {"CITY": "Trenton", "NAME": "Ring Kindergarten", "ZIP": "08628", "COUNTY": "Mercer", "PHONE": "(609)883-9550", "STATE": "NJ", "ADDRESS": "999 Lower Ferry Rd.", "TYPE": "School", "SUB_TYPE": "Private"}},{"geometry": {"type": "Point", "coordinates": [-74.8417717637826, 40.25547216828477]}, "type": "Feature", "id": 548, "properties": {"CITY": "Trenton", "NAME": "Villa Victoria Academy", "ZIP": "08628", "COUNTY": "Mercer", "PHONE": "(609)882-1700", "STATE": "NJ", "ADDRESS": "376 Upper W. Ferry Rd.", "TYPE": "School", "SUB_TYPE": "Private"}},{"geometry": {"type": "Point", "coordinates": [-74.76451300111898, 40.34237557994354]}, "type": "Feature", "id": 549, "properties": {"CITY": "Pennington", "NAME": "Child Development Center BMS", "ZIP": "08534", "COUNTY": "Mercer", "PHONE": "(609)818-6200", "STATE": "NJ", "ADDRESS": "311 Pennington Rocky Hill Rd.", "TYPE": "School", "SUB_TYPE": "Private"}},{"geometry": {"type": "Point", "coordinates": [-74.63843543936203, 40.223254533138814]}, "type": "Feature", "id": 550, "properties": {"CITY": "Trenton", "NAME": "Saint Gregory the Great School", "ZIP": "08690", "COUNTY": "Mercer", "PHONE": "(609)587-1131", "STATE": "NJ", "ADDRESS": "4680 Nottingham Way", "TYPE": "School", "SUB_TYPE": "Private"}},{"geometry": {"type": "Point", "coordinates": [-74.69717690773884, 40.18965558749381]}, "type": "Feature", "id": 551, "properties": {"CITY": "Trenton", "NAME": "Saint Raphael School", "ZIP": "08610", "COUNTY": "Mercer", "PHONE": "(609)585-7733", "STATE": "NJ", "ADDRESS": "151 Gropp Ave.", "TYPE": "School", "SUB_TYPE": "Private"}},{"geometry": {"type": "Point", "coordinates": [-74.71838996813376, 40.21766815716699]}, "type": "Feature", "id": 552, "properties": {"CITY": "Trenton", "NAME": "Trenton Catholic Academy", "ZIP": "08610", "COUNTY": "Mercer", "PHONE": "(609)586-3705", "STATE": "NJ", "ADDRESS": "175 Leonard Ave.", "TYPE": "School", "SUB_TYPE": "Private"}},{"geometry": {"type": "Point", "coordinates": [-74.70658148273014, 40.188418635774916]}, "type": "Feature", "id": 553, "properties": {"CITY": "Trenton", "NAME": "Miriam Morris Private School", "ZIP": "08610", "COUNTY": "Mercer", "PHONE": "(609)585-7223", "STATE": "NJ", "ADDRESS": "3332 South Broad St.", "TYPE": "School", "SUB_TYPE": "Private"}},{"geometry": {"type": "Point", "coordinates": [-74.70621964660222, 40.186920921772256]}, "type": "Feature", "id": 554, "properties": {"CITY": "Trenton", "NAME": "Del. Val. School-Exceptional Children", "ZIP": "08610", "COUNTY": "Mercer", "PHONE": "(609)888-0101", "STATE": "NJ", "ADDRESS": "87 Pearson Dr.", "TYPE": "School", "SUB_TYPE": "Private"}},{"geometry": {"type": "Point", "coordinates": [-74.68418393535077, 40.203014754150594]}, "type": "Feature", "id": 555, "properties": {"CITY": "Hamilton Square", "NAME": "Faith Christian Academy", "ZIP": "08690", "COUNTY": "Mercer", "PHONE": "(609)585-3353", "STATE": "NJ", "ADDRESS": "2111 Kuser Rd.", "TYPE": "School", "SUB_TYPE": "Private"}},{"geometry": {"type": "Point", "coordinates": [-74.68263879675146, 40.238251691136526]}, "type": "Feature", "id": 556, "properties": {"CITY": "Mercerville", "NAME": "The Little Friends School", "ZIP": "08619", "COUNTY": "Mercer", "PHONE": "(609)890-9164", "STATE": "NJ", "ADDRESS": "221 Edinburg Rd.", "TYPE": "School", "SUB_TYPE": "Private"}},{"geometry": {"type": "Point", "coordinates": [-74.73128288325627, 40.21883063347107]}, "type": "Feature", "id": 557, "properties": {"CITY": "Trenton", "NAME": "The New Grange School", "ZIP": "08629", "COUNTY": "Mercer", "PHONE": "(609)584-1800", "STATE": "NJ", "ADDRESS": "526 South Olden Ave.", "TYPE": "School", "SUB_TYPE": "Private"}},{"geometry": {"type": "Point", "coordinates": [-74.69215793844022, 40.23748912183937]}, "type": "Feature", "id": 558, "properties": {"CITY": "Mercerville", "NAME": "Our Lady of Sorrows School", "ZIP": "08619", "COUNTY": "Mercer", "PHONE": "(609)587-4140", "STATE": "NJ", "ADDRESS": "3800 East State St. Ext.", "TYPE": "School", "SUB_TYPE": "Private"}},{"geometry": {"type": "Point", "coordinates": [-74.8890453746828, 40.31650644122614]}, "type": "Feature", "id": 559, "properties": {"CITY": "Titusville", "NAME": "The Studio for Experiential Learning", "ZIP": "08560", "COUNTY": "Mercer", "PHONE": "(609)737-0440", "STATE": "NJ", "ADDRESS": "2 Fiddlers Creek Rd.", "TYPE": "School", "SUB_TYPE": "Private"}},{"geometry": {"type": "Point", "coordinates": [-74.63537004078626, 40.37439565497602]}, "type": "Feature", "id": 560, "properties": {"COUNTY": "Mercer", "MCD": "PRINCETON TWP", "TYPE": "Park", "NAME": "Barbara Smoyer Park", "SUB_TYPE": "Municipal Park"}}]}